{
"type": "FeatureCollection",
"name": "公园",
"crs": { "type": "name", "properties": { "name": "urn:ogc:def:crs:OGC:1.3:CRS84" } },
"xy_coordinate_resolution": 1e-15,
"features": [
{ "type": "Feature", "properties": { "OBJECTID": 1, "name": "扬子江生态公园", "lng": 118.72541, "lat": 32.097882, "address": "江苏省南京市浦口区滨江大道与广西埂大街交叉口南260米" }, "geometry": { "type": "Point", "coordinates": [ 118.713659395107484, 32.094109481428404 ] } },
{ "type": "Feature", "properties": { "OBJECTID": 2, "name": "玄武湖景区", "lng": 118.805436, "lat": 32.076613, "address": "南京市玄武区玄武巷1号" }, "geometry": { "type": "Point", "coordinates": [ 118.793822939131203, 32.07232571380176 ] } },
{ "type": "Feature", "properties": { "OBJECTID": 3, "name": "宝塔山森林公园", "lng": 118.72595, "lat": 32.149881, "address": "江苏省南京市浦口区大桥北路泰山新村南侧" }, "geometry": { "type": "Point", "coordinates": [ 118.714213653624725, 32.146132923493489 ] } },
{ "type": "Feature", "properties": { "OBJECTID": 4, "name": "寅春路海绵湿地公园", "lng": 118.853631, "lat": 32.127941, "address": "南京市栖霞区寅春路75号附近" }, "geometry": { "type": "Point", "coordinates": [ 118.841975210947311, 32.124394102482619 ] } },
{ "type": "Feature", "properties": { "OBJECTID": 5, "name": "郑和公园", "lng": 118.800876, "lat": 32.03775, "address": "江苏省南京市秦淮区长太平巷35号" }, "geometry": { "type": "Point", "coordinates": [ 118.789282685002334, 32.033469973091677 ] } },
{ "type": "Feature", "properties": { "OBJECTID": 6, "name": "麒麟科技生态中央公园", "lng": 118.897839, "lat": 32.027233, "address": "江苏省南京市江宁区建南社区智汇路麒麟科技生态中央公园" }, "geometry": { "type": "Point", "coordinates": [ 118.886337987614624, 32.023419412133194 ] } },
{ "type": "Feature", "properties": { "OBJECTID": 7, "name": "雨花石地质公园", "lng": 119.04531, "lat": 32.371932, "address": "江苏省南京市六合区横梁三友湖米家洼" }, "geometry": { "type": "Point", "coordinates": [ 119.033527746990686, 32.367554004197949 ] } },
{ "type": "Feature", "properties": { "OBJECTID": 8, "name": "南京市仙林湖公园", "lng": 118.99324, "lat": 32.132368, "address": "江苏省南京市栖霞区仙林湖路西" }, "geometry": { "type": "Point", "coordinates": [ 118.981476896020254, 32.128811348280244 ] } },
{ "type": "Feature", "properties": { "OBJECTID": 9, "name": "上秦淮生态湿地公园", "lng": 118.843437, "lat": 31.875179, "address": "江苏省南京市江宁区秣周路东50米" }, "geometry": { "type": "Point", "coordinates": [ 118.831815716024991, 31.871403226777154 ] } },
{ "type": "Feature", "properties": { "OBJECTID": 10, "name": "九龙湖公园", "lng": 118.817761, "lat": 31.923013, "address": "江苏省南京市江宁区苏源大道与清水亭西路交叉口东北角" }, "geometry": { "type": "Point", "coordinates": [ 118.806189990435286, 31.918775986830095 ] } },
{ "type": "Feature", "properties": { "OBJECTID": 11, "name": "羊山公园", "lng": 118.948497, "lat": 32.11689, "address": "江苏省南京市栖霞区环园路与九乡河西路交汇处" }, "geometry": { "type": "Point", "coordinates": [ 118.936982715626897, 32.112951307889908 ] } },
{ "type": "Feature", "properties": { "OBJECTID": 12, "name": "大学城公园", "lng": 118.898108, "lat": 31.909634, "address": "江苏省南京市江宁区金陵科技学院江宁校区西门斜对面" }, "geometry": { "type": "Point", "coordinates": [ 118.886617635476313, 31.90578834789444 ] } },
{ "type": "Feature", "properties": { "OBJECTID": 13, "name": "鱼嘴湿地公园", "lng": 118.67235, "lat": 31.980556, "address": "江苏省南京市建邺区扬子江大道888号" }, "geometry": { "type": "Point", "coordinates": [ 118.660833909079827, 31.97642678178741 ] } },
{ "type": "Feature", "properties": { "OBJECTID": 14, "name": "龟山公园", "lng": 118.909061, "lat": 32.098151, "address": "南京市文枢西路30号" }, "geometry": { "type": "Point", "coordinates": [ 118.897586237568547, 32.094158118866041 ] } },
{ "type": "Feature", "properties": { "OBJECTID": 15, "name": "江宁开发区滨河体育公园", "lng": 118.84567, "lat": 31.926431, "address": "江苏省南京市江宁区秣陵街道淮浦路以东、秦淮河以西" }, "geometry": { "type": "Point", "coordinates": [ 118.834029105419191, 31.922705924011456 ] } },
{ "type": "Feature", "properties": { "OBJECTID": 16, "name": "滨江公园", "lng": 118.713448, "lat": 32.014782, "address": "扬子江大道228号" }, "geometry": { "type": "Point", "coordinates": [ 118.701810886711442, 32.010798522575868 ] } },
{ "type": "Feature", "properties": { "OBJECTID": 17, "name": "花神湖公园", "lng": 118.793139, "lat": 31.994938, "address": "南京市雨花台区近郊紫荆花路9号(近南京科技馆正门)" }, "geometry": { "type": "Point", "coordinates": [ 118.781521069161855, 31.990707244084287 ] } },
{ "type": "Feature", "properties": { "OBJECTID": 18, "name": "绣球公园", "lng": 118.752721, "lat": 32.094714, "address": "江苏省南京市鼓楼区中山北路406号(近湖南路)" }, "geometry": { "type": "Point", "coordinates": [ 118.740892604725445, 32.09109455060122 ] } },
{ "type": "Feature", "properties": { "OBJECTID": 19, "name": "河西中央公园", "lng": 118.730947, "lat": 32.00171, "address": "南京市建邺区江东中路339号" }, "geometry": { "type": "Point", "coordinates": [ 118.71919695354903, 31.997999683323666 ] } },
{ "type": "Feature", "properties": { "OBJECTID": 20, "name": "石景山公园", "lng": 118.818917, "lat": 32.101877, "address": "江苏省南京市玄武区文四路与言和路交叉口西150米" }, "geometry": { "type": "Point", "coordinates": [ 118.807321670267982, 32.097692777699308 ] } },
{ "type": "Feature", "properties": { "OBJECTID": 21, "name": "段林公园", "lng": 119.069204, "lat": 31.665341, "address": "江苏省南京市溧水区段林路与文昌东路交叉口附近" }, "geometry": { "type": "Point", "coordinates": [ 119.057361485673681, 31.661026100214659 ] } },
{ "type": "Feature", "properties": { "OBJECTID": 22, "name": "东山公园", "lng": 118.84572, "lat": 31.961329, "address": "文靖西路99号" }, "geometry": { "type": "Point", "coordinates": [ 118.834057588189623, 31.957607849537599 ] } },
{ "type": "Feature", "properties": { "OBJECTID": 23, "name": "青奥森林公园", "lng": 118.701484, "lat": 32.006104, "address": "江苏省南京市建邺区江心洲夹江步行桥" }, "geometry": { "type": "Point", "coordinates": [ 118.689921389237725, 32.001942582248745 ] } },
{ "type": "Feature", "properties": { "OBJECTID": 24, "name": "凤凰山公园", "lng": 118.628781, "lat": 32.067823, "address": "江苏省南京市浦口区江浦街道公园北路99号" }, "geometry": { "type": "Point", "coordinates": [ 118.617149940929892, 32.064389527426385 ] } },
{ "type": "Feature", "properties": { "OBJECTID": 25, "name": "古林公园", "lng": 118.759987, "lat": 32.072555, "address": "江苏省南京市鼓楼区虎踞北路21号" }, "geometry": { "type": "Point", "coordinates": [ 118.748168301263703, 32.068860510894616 ] } },
{ "type": "Feature", "properties": { "OBJECTID": 26, "name": "六朝古都遗址公园", "lng": 118.709414, "lat": 31.947055, "address": "南京市雨花台区油新线与西柿路交叉路口往南约160米" }, "geometry": { "type": "Point", "coordinates": [ 118.697773720545683, 31.942980150391811 ] } },
{ "type": "Feature", "properties": { "OBJECTID": 27, "name": "平顶山公园", "lng": 118.775721, "lat": 32.242419, "address": "南京市六合区新华路633号" }, "geometry": { "type": "Point", "coordinates": [ 118.76399274893069, 32.238509588123847 ] } },
{ "type": "Feature", "properties": { "OBJECTID": 28, "name": "竹山公园", "lng": 118.848353, "lat": 31.954099, "address": "南京市江宁区金箔路与小龙湾路交叉口往东150米" }, "geometry": { "type": "Point", "coordinates": [ 118.836684877769883, 31.950422753177087 ] } },
{ "type": "Feature", "properties": { "OBJECTID": 29, "name": "求雨山文化公园", "lng": 118.623347, "lat": 32.062036, "address": "江苏省南京市浦口区求雨山文启路" }, "geometry": { "type": "Point", "coordinates": [ 118.611724313470333, 32.058603599450024 ] } },
{ "type": "Feature", "properties": { "OBJECTID": 30, "name": "滁河湾湿地公园", "lng": 118.850328, "lat": 32.329415, "address": "南京市六合区滁河路莉湖春晓东苑东北侧约90米" }, "geometry": { "type": "Point", "coordinates": [ 118.838625529733733, 32.325834078383551 ] } },
{ "type": "Feature", "properties": { "OBJECTID": 31, "name": "萧宏石刻公园", "lng": 118.927216, "lat": 32.092251, "address": "江苏省南京市栖霞区仙林大学城学则路" }, "geometry": { "type": "Point", "coordinates": [ 118.915767481942282, 32.088112999180353 ] } },
{ "type": "Feature", "properties": { "OBJECTID": 32, "name": "莫愁湖公园", "lng": 118.76843, "lat": 32.041142, "address": "南京市建邺区水西门大街132号" }, "geometry": { "type": "Point", "coordinates": [ 118.756672298624721, 32.037322638582452 ] } },
{ "type": "Feature", "properties": { "OBJECTID": 33, "name": "南京国际友谊公园", "lng": 118.706947, "lat": 31.981315, "address": "江苏省南京市建邺区平良大街吴侯街与江东南路交叉口东南100米" }, "geometry": { "type": "Point", "coordinates": [ 118.695332199228687, 31.977213831536627 ] } },
{ "type": "Feature", "properties": { "OBJECTID": 34, "name": "绿水湾国家城市湿地公园", "lng": 118.656718, "lat": 32.012138, "address": "江苏省南京市浦口区江浦街道滨江大道东100米" }, "geometry": { "type": "Point", "coordinates": [ 118.645185439130529, 32.008308987247624 ] } },
{ "type": "Feature", "properties": { "OBJECTID": 35, "name": "月牙湖公园", "lng": 118.834993, "lat": 32.035599, "address": "后标营51号" }, "geometry": { "type": "Point", "coordinates": [ 118.823381784078762, 32.031688918117361 ] } },
{ "type": "Feature", "properties": { "OBJECTID": 36, "name": "团山公园", "lng": 119.029479, "lat": 31.703127, "address": "中兴西路100号" }, "geometry": { "type": "Point", "coordinates": [ 119.017741115316014, 31.698810853453026 ] } },
{ "type": "Feature", "properties": { "OBJECTID": 37, "name": "梦之蓝青奥体育公园", "lng": 118.670989, "lat": 32.05603, "address": "江苏省南京市浦口区横江大道" }, "geometry": { "type": "Point", "coordinates": [ 118.659460115230999, 32.051937245692606 ] } },
{ "type": "Feature", "properties": { "OBJECTID": 38, "name": "乌龙潭公园", "lng": 118.772649, "lat": 32.051905, "address": "江苏省南京市鼓楼区广州路217号(省人民医院对面)" }, "geometry": { "type": "Point", "coordinates": [ 118.760901125878888, 32.048011734674404 ] } },
{ "type": "Feature", "properties": { "OBJECTID": 39, "name": "江苏江宁方山国家地质公园(方山风景区)", "lng": 118.884145, "lat": 31.901584, "address": "南京市江宁区天印大道" }, "geometry": { "type": "Point", "coordinates": [ 118.872580261591082, 31.897970160818485 ] } },
{ "type": "Feature", "properties": { "OBJECTID": 40, "name": "南湖公园", "lng": 118.769206, "lat": 32.034024, "address": "江苏省南京市建邺区南湖东路与彩虹路交叉口" }, "geometry": { "type": "Point", "coordinates": [ 118.757459231465063, 32.0301916456092 ] } },
{ "type": "Feature", "properties": { "OBJECTID": 41, "name": "鼓楼公园", "lng": 118.788487, "lat": 32.064917, "address": "江苏省南京市鼓楼区北京西路1-2号" }, "geometry": { "type": "Point", "coordinates": [ 118.776815361156864, 32.060754010338549 ] } },
{ "type": "Feature", "properties": { "OBJECTID": 42, "name": "石头城遗址公园", "lng": 118.762601, "lat": 32.053988, "address": "江苏省南京市鼓楼区虎踞路87号" }, "geometry": { "type": "Point", "coordinates": [ 118.750804213103976, 32.050258256839776 ] } },
{ "type": "Feature", "properties": { "OBJECTID": 43, "name": "白鹭洲公园", "lng": 118.801314, "lat": 32.024376, "address": "夫子庙白鹭村1号" }, "geometry": { "type": "Point", "coordinates": [ 118.789732571198442, 32.020093773608245 ] } },
{ "type": "Feature", "properties": { "OBJECTID": 44, "name": "秦淮源公园", "lng": 119.060156, "lat": 31.651275, "address": "江苏省南京市溧水区中山东路488号" }, "geometry": { "type": "Point", "coordinates": [ 119.048374054189324, 31.646841162341733 ] } },
{ "type": "Feature", "properties": { "OBJECTID": 45, "name": "七桥瓮生态湿地公园", "lng": 118.840559, "lat": 32.012757, "address": "江苏省南京市秦淮区友谊河路光华门外红花乡七桥村" }, "geometry": { "type": "Point", "coordinates": [ 118.828942901850724, 32.008957907013851 ] } },
{ "type": "Feature", "properties": { "OBJECTID": 46, "name": "桥北滨江生态公园", "lng": 118.740882, "lat": 32.118744, "address": "滨江路与迎江路交叉口" }, "geometry": { "type": "Point", "coordinates": [ 118.729081373651439, 32.115145795160942 ] } },
{ "type": "Feature", "properties": { "OBJECTID": 47, "name": "八卦洲湿地公园", "lng": 118.799502, "lat": 32.156847, "address": "江苏省南京市栖霞区八卦洲洲头" }, "geometry": { "type": "Point", "coordinates": [ 118.787894529798891, 32.152598270839171 ] } },
{ "type": "Feature", "properties": { "OBJECTID": 48, "name": "江苏江宁汤山方山国家地质公园(汤山园区)", "lng": 119.039034, "lat": 32.067158, "address": "江苏省南京市江宁区汤山镇(汤山紫清湖旅游区)" }, "geometry": { "type": "Point", "coordinates": [ 119.02725673038664, 32.062777427110078 ] } },
{ "type": "Feature", "properties": { "OBJECTID": 49, "name": "凤凰山公园", "lng": 118.849168, "lat": 32.354636, "address": "南京市六合区延安路47号" }, "geometry": { "type": "Point", "coordinates": [ 118.837488472634149, 32.351042698827513 ] } },
{ "type": "Feature", "properties": { "OBJECTID": 50, "name": "东水关遗址公园", "lng": 118.805269, "lat": 32.028933, "address": "江苏省南京市秦淮区龙蟠中路408号" }, "geometry": { "type": "Point", "coordinates": [ 118.793694280450964, 32.024644344687374 ] } },
{ "type": "Feature", "properties": { "OBJECTID": 51, "name": "太子山公园(园东路)", "lng": 118.761119, "lat": 32.224469, "address": "江苏省南京市江北新区园东路280号" }, "geometry": { "type": "Point", "coordinates": [ 118.749307009949078, 32.220792038376779 ] } },
{ "type": "Feature", "properties": { "OBJECTID": 52, "name": "浦口公园", "lng": 118.726161, "lat": 32.10795, "address": "江苏省南京市浦口区宁港路与浦园路交汇处" }, "geometry": { "type": "Point", "coordinates": [ 118.714414899638555, 32.104193666206349 ] } },
{ "type": "Feature", "properties": { "OBJECTID": 53, "name": "浦口滨江湿地公园", "lng": 118.696593, "lat": 32.07337, "address": "南京市浦口区七里河大街与滨江大道交叉口东南150米" }, "geometry": { "type": "Point", "coordinates": [ 118.685013891389119, 32.06916750347753 ] } },
{ "type": "Feature", "properties": { "OBJECTID": 54, "name": "莲花湿地公园", "lng": 118.718449, "lat": 31.964341, "address": "南京市建邺区莲池路南京市西善桥中心小学北侧约70米" }, "geometry": { "type": "Point", "coordinates": [ 118.706745879753029, 31.96042141977912 ] } },
{ "type": "Feature", "properties": { "OBJECTID": 55, "name": "钟山体育运动公园", "lng": 118.878493, "lat": 32.051952, "address": "南京市玄武区中山门外石象路7号中山陵园风景区" }, "geometry": { "type": "Point", "coordinates": [ 118.866862463272298, 32.048432433321324 ] } },
{ "type": "Feature", "properties": { "OBJECTID": 56, "name": "杏湖公园", "lng": 118.763808, "lat": 32.171621, "address": "江苏省南京市浦口区绿联路" }, "geometry": { "type": "Point", "coordinates": [ 118.752006995410582, 32.167898048195852 ] } },
{ "type": "Feature", "properties": { "OBJECTID": 57, "name": "燕子矶滨江公园", "lng": 118.831634, "lat": 32.155283, "address": "江苏省南京市栖霞区燕津大道" }, "geometry": { "type": "Point", "coordinates": [ 118.820021696479074, 32.151329723171244 ] } },
{ "type": "Feature", "properties": { "OBJECTID": 58, "name": "兰溪公园", "lng": 118.60962, "lat": 32.057536, "address": "南京市浦口区新北路(中交·锦兰荟东侧)" }, "geometry": { "type": "Point", "coordinates": [ 118.598038768579627, 32.053982398469017 ] } },
{ "type": "Feature", "properties": { "OBJECTID": 59, "name": "南京市蟠龙湖森林公园", "lng": 118.80929, "lat": 31.66914, "address": "南京市江宁区横溪蟠龙湖" }, "geometry": { "type": "Point", "coordinates": [ 118.797752996128267, 31.664797880464953 ] } },
{ "type": "Feature", "properties": { "OBJECTID": 60, "name": "太平山公园", "lng": 118.880244, "lat": 32.135386, "address": "新城路" }, "geometry": { "type": "Point", "coordinates": [ 118.86863891313962, 32.131872526383724 ] } },
{ "type": "Feature", "properties": { "OBJECTID": 61, "name": "石刻湖公园", "lng": 118.607126, "lat": 31.854458, "address": "江苏省南京市江宁区X003(锦文路)" }, "geometry": { "type": "Point", "coordinates": [ 118.595573158058784, 31.85082137823537 ] } },
{ "type": "Feature", "properties": { "OBJECTID": 62, "name": "滨水绿地公园", "lng": 118.803426, "lat": 31.963344, "address": "南京市江宁区映淮街天龙湾花园北侧约230米" }, "geometry": { "type": "Point", "coordinates": [ 118.791820124721355, 31.959032559300475 ] } },
{ "type": "Feature", "properties": { "OBJECTID": 63, "name": "桃湖公园", "lng": 118.742043, "lat": 32.203588, "address": "南京市浦口区湖滨路与新华西路交叉路口往东南约200米(南钢宾馆南侧约200米)" }, "geometry": { "type": "Point", "coordinates": [ 118.730201941778276, 32.200001150779769 ] } },
{ "type": "Feature", "properties": { "OBJECTID": 64, "name": "佛手湖郊野公园", "lng": 118.666652, "lat": 32.114681, "address": "江苏省南京市浦口区沿山大道与浦镇大街交叉口西南角" }, "geometry": { "type": "Point", "coordinates": [ 118.655127746968489, 32.110678042757264 ] } },
{ "type": "Feature", "properties": { "OBJECTID": 65, "name": "老山国家森林公园", "lng": 118.608007, "lat": 32.10791, "address": "南京市浦口区黄山岭路90号" }, "geometry": { "type": "Point", "coordinates": [ 118.59644033614596, 32.104346607725709 ] } },
{ "type": "Feature", "properties": { "OBJECTID": 66, "name": "青宁公园", "lng": 118.902947, "lat": 31.915379, "address": "江苏省南京市江宁区江宁体育中心" }, "geometry": { "type": "Point", "coordinates": [ 118.891477924998682, 31.911447858427316 ] } },
{ "type": "Feature", "properties": { "OBJECTID": 67, "name": "聚宝山公园", "lng": 118.878804, "lat": 32.107024, "address": "玄武大道96号" }, "geometry": { "type": "Point", "coordinates": [ 118.867176664602084, 32.103515087118268 ] } },
{ "type": "Feature", "properties": { "OBJECTID": 68, "name": "江宁体育公园", "lng": 118.857187, "lat": 31.953909, "address": "南京市江宁区金箔路518号" }, "geometry": { "type": "Point", "coordinates": [ 118.845507993933964, 31.950356418383034 ] } },
{ "type": "Feature", "properties": { "OBJECTID": 69, "name": "九龙湖南湖公园", "lng": 118.826357, "lat": 31.908747, "address": "诚信大道与长亭街交汇处" }, "geometry": { "type": "Point", "coordinates": [ 118.814785466944713, 31.904640991920196 ] } },
{ "type": "Feature", "properties": { "OBJECTID": 70, "name": "菊花台公园", "lng": 118.764053, "lat": 31.987511, "address": "江苏省南京市雨花台区安德门大街6号" }, "geometry": { "type": "Point", "coordinates": [ 118.752277508364287, 31.983747751725119 ] } },
{ "type": "Feature", "properties": { "OBJECTID": 71, "name": "象山湖公园", "lng": 118.624731, "lat": 32.095684, "address": "南京市浦口区沿山大道与象山路交叉口北100米" }, "geometry": { "type": "Point", "coordinates": [ 118.613107831461903, 32.092262500090321 ] } },
{ "type": "Feature", "properties": { "OBJECTID": 72, "name": "神策门公园", "lng": 118.793835, "lat": 32.095068, "address": "南京市玄武区龙蟠路2号" }, "geometry": { "type": "Point", "coordinates": [ 118.782191932092331, 32.09084703496228 ] } },
{ "type": "Feature", "properties": { "OBJECTID": 73, "name": "幕燕滨江·燕子矶公园", "lng": 118.823549, "lat": 32.153029, "address": "江苏省南京市栖霞区临江街3号" }, "geometry": { "type": "Point", "coordinates": [ 118.811958275776462, 32.148927320239039 ] } },
{ "type": "Feature", "properties": { "OBJECTID": 74, "name": "宝塔公园", "lng": 118.895379, "lat": 31.327006, "address": "南京市高淳区宝塔路153号" }, "geometry": { "type": "Point", "coordinates": [ 118.883909437644704, 31.323224162037199 ] } },
{ "type": "Feature", "properties": { "OBJECTID": 75, "name": "月季园", "lng": 118.801767, "lat": 32.076682, "address": "南京市玄武区玄武湖公园环洲内" }, "geometry": { "type": "Point", "coordinates": [ 118.790145330721629, 32.072399930269661 ] } },
{ "type": "Feature", "properties": { "OBJECTID": 76, "name": "前湖公园", "lng": 118.836932, "lat": 32.05416, "address": "南京市玄武区石象路7号中山陵园风景区" }, "geometry": { "type": "Point", "coordinates": [ 118.82529539507091, 32.050289007644238 ] } },
{ "type": "Feature", "properties": { "OBJECTID": 77, "name": "九华山公园", "lng": 118.814381, "lat": 32.06604, "address": "南京市玄武区北京东路" }, "geometry": { "type": "Point", "coordinates": [ 118.802779186988914, 32.061794297101187 ] } },
{ "type": "Feature", "properties": { "OBJECTID": 78, "name": "下关火车主题园", "lng": 118.750383, "lat": 32.109542, "address": "南京市鼓楼区江边路" }, "geometry": { "type": "Point", "coordinates": [ 118.738565590734282, 32.105941805531849 ] } },
{ "type": "Feature", "properties": { "OBJECTID": 79, "name": "莲花湖公园", "lng": 118.661587, "lat": 31.914132, "address": "江苏省南京市雨花台区新湖大道(金地自在城小区对面)" }, "geometry": { "type": "Point", "coordinates": [ 118.650070326303066, 31.910180633664353 ] } },
{ "type": "Feature", "properties": { "OBJECTID": 80, "name": "清凉山", "lng": 118.767375, "lat": 32.055983, "address": "江苏省南京市鼓楼区广州路83号" }, "geometry": { "type": "Point", "coordinates": [ 118.7555963945006, 32.052180543662779 ] } },
{ "type": "Feature", "properties": { "OBJECTID": 81, "name": "钟山风景名胜区", "lng": 118.850383, "lat": 32.070188, "address": "江苏省南京市玄武区石象路7号" }, "geometry": { "type": "Point", "coordinates": [ 118.838701100556634, 32.066571759519285 ] } },
{ "type": "Feature", "properties": { "OBJECTID": 82, "name": "状元坊文化公园", "lng": 119.02737, "lat": 31.660125, "address": "江苏省南京市溧水区永阳街道大西门街96号" }, "geometry": { "type": "Point", "coordinates": [ 119.015668752122352, 31.65585346547919 ] } },
{ "type": "Feature", "properties": { "OBJECTID": 83, "name": "金乌温泉公园", "lng": 119.060326, "lat": 32.051608, "address": "江苏省南京市江宁区延祥路66号" }, "geometry": { "type": "Point", "coordinates": [ 119.04848209658536, 32.047237679483253 ] } },
{ "type": "Feature", "properties": { "OBJECTID": 84, "name": "南京市无想山国家森林公园", "lng": 119.032124, "lat": 31.606464, "address": "江苏省南京市溧水区无想山大道" }, "geometry": { "type": "Point", "coordinates": [ 119.020393883681251, 31.602100908661367 ] } },
{ "type": "Feature", "properties": { "OBJECTID": 85, "name": "三桥湿地公园", "lng": 118.658037, "lat": 31.965805, "address": "江苏省南京市雨花台区扬子江大道与天后村互通交叉口西北400米" }, "geometry": { "type": "Point", "coordinates": [ 118.646477071318841, 31.961928953413096 ] } },
{ "type": "Feature", "properties": { "OBJECTID": 86, "name": "姚坊门遗址公园", "lng": 118.886039, "lat": 32.113286, "address": "南京市栖霞区仙尧路与拥军路交叉路口东侧" }, "geometry": { "type": "Point", "coordinates": [ 118.874453548125587, 32.109689221226432 ] } },
{ "type": "Feature", "properties": { "OBJECTID": 87, "name": "月鹭湖公园", "lng": 118.985609, "lat": 31.716955, "address": "江苏省南京市溧水区创业路溧水产业新城科创中心南侧约210米" }, "geometry": { "type": "Point", "coordinates": [ 118.97386719602622, 31.713349974334442 ] } },
{ "type": "Feature", "properties": { "OBJECTID": 88, "name": "山顶公园", "lng": 118.848658, "lat": 32.076177, "address": "南京市玄武区中山门外石象路7号钟山风景名胜区头陀岭景区内" }, "geometry": { "type": "Point", "coordinates": [ 118.836977811798363, 32.07253363422145 ] } },
{ "type": "Feature", "properties": { "OBJECTID": 89, "name": "梅花谷公园", "lng": 118.842594, "lat": 32.051342, "address": "南京市玄武区钟山风景名胜区内" }, "geometry": { "type": "Point", "coordinates": [ 118.83094436328615, 32.047585531562824 ] } },
{ "type": "Feature", "properties": { "OBJECTID": 90, "name": "麒麟石刻体育公园", "lng": 118.931781, "lat": 32.067447, "address": "江苏省南京市江宁区其东线麒麟铺党群服务中心对面" }, "geometry": { "type": "Point", "coordinates": [ 118.920322004696772, 32.06331236429093 ] } },
{ "type": "Feature", "properties": { "OBJECTID": 91, "name": "汤山矿坑公园", "lng": 119.044959, "lat": 32.047815, "address": "南京市江宁区汤山街道美泉路11号" }, "geometry": { "type": "Point", "coordinates": [ 119.033186810658066, 32.043392684427182 ] } },
{ "type": "Feature", "properties": { "OBJECTID": 92, "name": "下马坊遗址公园", "lng": 118.850788, "lat": 32.047723, "address": "南京市玄武区下马坊地铁站2号口西" }, "geometry": { "type": "Point", "coordinates": [ 118.8391242465554, 32.044112659769084 ] } },
{ "type": "Feature", "properties": { "OBJECTID": 93, "name": "南京宪法公园", "lng": 118.716061, "lat": 32.019198, "address": "江苏省南京市建邺区扬子江大道248号" }, "geometry": { "type": "Point", "coordinates": [ 118.704405457946734, 32.015259950715112 ] } },
{ "type": "Feature", "properties": { "OBJECTID": 94, "name": "江宁新天地公园", "lng": 118.875868, "lat": 31.974065, "address": "城东路与通湖路交叉口东50米" }, "geometry": { "type": "Point", "coordinates": [ 118.864228437679429, 31.970548584427117 ] } },
{ "type": "Feature", "properties": { "OBJECTID": 95, "name": "九乡河生态公园", "lng": 118.955021, "lat": 32.127035, "address": "南京市栖霞区南京绕城高速九乡河" }, "geometry": { "type": "Point", "coordinates": [ 118.943467263799491, 32.12320676943957 ] } },
{ "type": "Feature", "properties": { "OBJECTID": 96, "name": "江宁滨江公园", "lng": 118.571267, "lat": 31.870199, "address": "江苏省南京市江宁区江宁街道G235辅路" }, "geometry": { "type": "Point", "coordinates": [ 118.559829692127082, 31.86600524459573 ] } },
{ "type": "Feature", "properties": { "OBJECTID": 97, "name": "大钟亭公园", "lng": 118.791018, "lat": 32.066753, "address": "大钟亭路1号" }, "geometry": { "type": "Point", "coordinates": [ 118.779357884544581, 32.062556402848983 ] } },
{ "type": "Feature", "properties": { "OBJECTID": 98, "name": "江苏南京长江新济洲国家湿地公园", "lng": 118.546026, "lat": 31.861425, "address": "江苏省南京市江宁区江宁街道长江南京段上游" }, "geometry": { "type": "Point", "coordinates": [ 118.53446685501369, 31.857347887137234 ] } },
{ "type": "Feature", "properties": { "OBJECTID": 99, "name": "固城湖国家城市湿地公园", "lng": 118.916299, "lat": 31.333138, "address": "南京市高淳区史家路与慢城绿道交叉口东北150米" }, "geometry": { "type": "Point", "coordinates": [ 118.904914700261045, 31.329030958686033 ] } },
{ "type": "Feature", "properties": { "OBJECTID": 100, "name": "浅山休闲公园", "lng": 118.655408, "lat": 32.0971, "address": "南京市浦口区沿山大道中段金地浅山艺境西侧约70米" }, "geometry": { "type": "Point", "coordinates": [ 118.643836049294606, 32.093308985077648 ] } },
{ "type": "Feature", "properties": { "OBJECTID": 101, "name": "江宁(杨家圩)市民公园", "lng": 118.840493, "lat": 31.946398, "address": "南京市江宁区公园西路2号" }, "geometry": { "type": "Point", "coordinates": [ 118.828847161007189, 31.942572555089679 ] } },
{ "type": "Feature", "properties": { "OBJECTID": 102, "name": "北极阁公园", "lng": 118.797995, "lat": 32.066019, "address": "江苏省南京市玄武区鸡鸣寺路1号" }, "geometry": { "type": "Point", "coordinates": [ 118.786364859398248, 32.061754265049295 ] } },
{ "type": "Feature", "properties": { "OBJECTID": 103, "name": "小桃园", "lng": 118.752523, "lat": 32.084755, "address": "江苏省南京市鼓楼区中山北路" }, "geometry": { "type": "Point", "coordinates": [ 118.740688777016288, 32.081132911867634 ] } },
{ "type": "Feature", "properties": { "OBJECTID": 104, "name": "白马公园", "lng": 118.823191, "lat": 32.066769, "address": "江苏省南京市玄武区白马山庄1号" }, "geometry": { "type": "Point", "coordinates": [ 118.811579461325792, 32.062636194557427 ] } },
{ "type": "Feature", "properties": { "OBJECTID": 105, "name": "郑和宝船厂遗址公园", "lng": 118.740056, "lat": 32.06675, "address": "江苏省南京市鼓楼区漓江路57号" }, "geometry": { "type": "Point", "coordinates": [ 118.728233409695832, 32.063128934632388 ] } },
{ "type": "Feature", "properties": { "OBJECTID": 106, "name": "南京市溧水区体育公园", "lng": 119.045092, "lat": 31.641017, "address": "南京市溧水区体育公园路69号" }, "geometry": { "type": "Point", "coordinates": [ 119.033371675715699, 31.636530663692952 ] } },
{ "type": "Feature", "properties": { "OBJECTID": 107, "name": "南京平山森林公园", "lng": 118.854976, "lat": 32.465659, "address": "江苏省南京市六合区马鞍镇" }, "geometry": { "type": "Point", "coordinates": [ 118.843268914599378, 32.462138730081001 ] } },
{ "type": "Feature", "properties": { "OBJECTID": 108, "name": "濑渚洲公园", "lng": 118.903438, "lat": 31.326359, "address": "江苏省南京市高淳区丹阳湖南路9号" }, "geometry": { "type": "Point", "coordinates": [ 118.892012690929008, 31.322434619311661 ] } },
{ "type": "Feature", "properties": { "OBJECTID": 109, "name": "黄天荡湿地公园", "lng": 119.133598, "lat": 32.244368, "address": "江苏省南京市栖霞区龙潭街道136乡道西50米" }, "geometry": { "type": "Point", "coordinates": [ 119.121615055537021, 32.24031586458878 ] } },
{ "type": "Feature", "properties": { "OBJECTID": 110, "name": "WeLope紫金山探险公园", "lng": 118.868134, "lat": 32.061374, "address": "江苏省南京市玄武区钟山风景名胜区内中山陵景区水榭路" }, "geometry": { "type": "Point", "coordinates": [ 118.856459909711162, 32.057906047403307 ] } },
{ "type": "Feature", "properties": { "OBJECTID": 111, "name": "石臼湖·骆山花火露营公园", "lng": 118.980197, "lat": 31.45134, "address": "江苏省南京市溧水区和凤镇石臼湖路" }, "geometry": { "type": "Point", "coordinates": [ 118.968516346927359, 31.447748793093016 ] } },
{ "type": "Feature", "properties": { "OBJECTID": 112, "name": "南京国防园", "lng": 118.761457, "lat": 32.057074, "address": "江苏省南京市鼓楼区虎锯路87号(近虎踞南路)" }, "geometry": { "type": "Point", "coordinates": [ 118.749653050941731, 32.053359713827078 ] } },
{ "type": "Feature", "properties": { "OBJECTID": 113, "name": "南京游子山休闲旅游区", "lng": 119.020801, "lat": 31.355616, "address": "江苏省南京市高淳区东坝街道环山路6号" }, "geometry": { "type": "Point", "coordinates": [ 119.00908271566469, 31.351511393487527 ] } },
{ "type": "Feature", "properties": { "OBJECTID": 114, "name": "和平公园", "lng": 118.803606, "lat": 32.063963, "address": "南京市玄武区北京东路43号" }, "geometry": { "type": "Point", "coordinates": [ 118.791993873996731, 32.059674884219348 ] } },
{ "type": "Feature", "properties": { "OBJECTID": 115, "name": "牛首山文化旅游区", "lng": 118.750261, "lat": 31.911181, "address": "江苏省南京市江宁区宁丹大道18号" }, "geometry": { "type": "Point", "coordinates": [ 118.738472393355991, 31.907539534619541 ] } },
{ "type": "Feature", "properties": { "OBJECTID": 116, "name": "万景园", "lng": 118.724152, "lat": 32.041272, "address": "江苏省南京市建邺区扬子江大道228号滨江公园内" }, "geometry": { "type": "Point", "coordinates": [ 118.71242701807364, 32.037470867599303 ] } },
{ "type": "Feature", "properties": { "OBJECTID": 117, "name": "三河公园", "lng": 118.901446, "lat": 32.029805, "address": "南京市玄武区启迪大街花港·鸿福城-枫林园南侧约240米" }, "geometry": { "type": "Point", "coordinates": [ 118.889963105208949, 32.025927261094751 ] } },
{ "type": "Feature", "properties": { "OBJECTID": 118, "name": "西安门遗址公园", "lng": 118.811707, "lat": 32.045903, "address": "龙蟠中路202号" }, "geometry": { "type": "Point", "coordinates": [ 118.80012349385639, 32.041636324964635 ] } },
{ "type": "Feature", "properties": { "OBJECTID": 119, "name": "南京中国绿化博览园", "lng": 118.716203, "lat": 32.025743, "address": "江苏省南京市建邺区扬子江大道228号" }, "geometry": { "type": "Point", "coordinates": [ 118.704543707311771, 32.021808300096161 ] } },
{ "type": "Feature", "properties": { "OBJECTID": 120, "name": "挹江门", "lng": 118.75344, "lat": 32.092216, "address": "南京市鼓楼区中山北路398号(绣球公园)" }, "geometry": { "type": "Point", "coordinates": [ 118.741610755229999, 32.088590708846169 ] } },
{ "type": "Feature", "properties": { "OBJECTID": 121, "name": "南京世界文学客厅", "lng": 118.800675, "lat": 32.06482, "address": "江苏省南京市玄武区北京东路37-5号" }, "geometry": { "type": "Point", "coordinates": [ 118.789054446212873, 32.060540311518942 ] } },
{ "type": "Feature", "properties": { "OBJECTID": 122, "name": "求雨山文化名人纪念馆", "lng": 118.625485, "lat": 32.061554, "address": "江苏省南京市浦口区江浦街道雨山路48号" }, "geometry": { "type": "Point", "coordinates": [ 118.613860097652676, 32.058124565081663 ] } },
{ "type": "Feature", "properties": { "OBJECTID": 123, "name": "511公园", "lng": 118.813673, "lat": 32.042598, "address": "南京市秦淮区航城路16号" }, "geometry": { "type": "Point", "coordinates": [ 118.802093545102252, 32.038346318603573 ] } },
{ "type": "Feature", "properties": { "OBJECTID": 124, "name": "瓜埠山景区国家地质公园", "lng": 118.902882, "lat": 32.256268, "address": "采石场西侧" }, "geometry": { "type": "Point", "coordinates": [ 118.891391120846919, 32.252406728607163 ] } },
{ "type": "Feature", "properties": { "OBJECTID": 125, "name": "民国首都电厂旧址公园", "lng": 118.740131, "lat": 32.094742, "address": "江苏省南京市鼓楼区江边路6号" }, "geometry": { "type": "Point", "coordinates": [ 118.72831189356873, 32.091129054770668 ] } },
{ "type": "Feature", "properties": { "OBJECTID": 126, "name": "江宁滨江公园", "lng": 118.512894, "lat": 31.775573, "address": "江苏省南京市江宁区" }, "geometry": { "type": "Point", "coordinates": [ 118.501113761881072, 31.771898631366387 ] } },
{ "type": "Feature", "properties": { "OBJECTID": 127, "name": "玄武湖景区-情侣园", "lng": 118.815677, "lat": 32.076765, "address": "江苏省南京市玄武区龙蟠路100号" }, "geometry": { "type": "Point", "coordinates": [ 118.80407127444829, 32.07253352287038 ] } },
{ "type": "Feature", "properties": { "OBJECTID": 128, "name": "博爱园", "lng": 118.85328, "lat": 32.049051, "address": "南京市玄武区石象路7号中山陵风景区" }, "geometry": { "type": "Point", "coordinates": [ 118.841611290303248, 32.045477089902889 ] } },
{ "type": "Feature", "properties": { "OBJECTID": 129, "name": "江苏六合国家地质公园", "lng": 118.94211, "lat": 32.466098, "address": "桂子山烈士陵园北" }, "geometry": { "type": "Point", "coordinates": [ 118.930592195378907, 32.462083108639924 ] } },
{ "type": "Feature", "properties": { "OBJECTID": 130, "name": "羊山湖", "lng": 118.950836, "lat": 32.114198, "address": "仙境路18号" }, "geometry": { "type": "Point", "coordinates": [ 118.939303896536387, 32.110295306803309 ] } },
{ "type": "Feature", "properties": { "OBJECTID": 131, "name": "三山矶生态公园一期", "lng": 118.614808, "lat": 31.928443, "address": "江苏省南京市雨花台区板桥西侧" }, "geometry": { "type": "Point", "coordinates": [ 118.603229164193323, 31.924927055373896 ] } },
{ "type": "Feature", "properties": { "OBJECTID": 132, "name": "体力波双龙体育公园", "lng": 118.820019, "lat": 31.985121, "address": "双龙街2-6号楼" }, "geometry": { "type": "Point", "coordinates": [ 118.808436072766412, 31.980926413960081 ] } },
{ "type": "Feature", "properties": { "OBJECTID": 133, "name": "中山门入口公园", "lng": 118.838457, "lat": 32.048326, "address": "南京市玄武区明陵路钟山风景名胜区" }, "geometry": { "type": "Point", "coordinates": [ 118.826822175973831, 32.044486511210941 ] } },
{ "type": "Feature", "properties": { "OBJECTID": 134, "name": "止马岭森林公园", "lng": 118.584013, "lat": 32.570064, "address": "江苏省南京市六合区竹镇四三线" }, "geometry": { "type": "Point", "coordinates": [ 118.57248275250322, 32.566058823326067 ] } },
{ "type": "Feature", "properties": { "OBJECTID": 135, "name": "三山湖公园", "lng": 118.985185, "lat": 31.742898, "address": "江苏省南京市溧水区凤凰街" }, "geometry": { "type": "Point", "coordinates": [ 118.973458416214527, 31.739300682889358 ] } },
{ "type": "Feature", "properties": { "OBJECTID": 136, "name": "果老滩城市公园", "lng": 118.853051, "lat": 32.329267, "address": "江苏省南京市六合区滁河东路" }, "geometry": { "type": "Point", "coordinates": [ 118.841344392938694, 32.325726581697602 ] } },
{ "type": "Feature", "properties": { "OBJECTID": 137, "name": "六合区平山林场", "lng": 118.818718, "lat": 32.452502, "address": "南京市六合区马玉线翠茗小区西侧约210米" }, "geometry": { "type": "Point", "coordinates": [ 118.807082736389589, 32.448334394033971 ] } },
{ "type": "Feature", "properties": { "OBJECTID": 138, "name": "南京松鼠部落森林假日公园", "lng": 118.545577, "lat": 32.106676, "address": "南京市浦口区汤泉街道泉东社区银泉路88号" }, "geometry": { "type": "Point", "coordinates": [ 118.533997695382453, 32.102660853242526 ] } },
{ "type": "Feature", "properties": { "OBJECTID": 139, "name": "仙鹤门公园", "lng": 118.913074, "lat": 32.093882, "address": "江苏省南京市玄武区X001(燕西线)" }, "geometry": { "type": "Point", "coordinates": [ 118.901610503759102, 32.089833479748791 ] } },
{ "type": "Feature", "properties": { "OBJECTID": 140, "name": "河岸花海", "lng": 118.555599, "lat": 32.150981, "address": "宁滁快速通道侯冲风景区" }, "geometry": { "type": "Point", "coordinates": [ 118.544095761466735, 32.146865536279755 ] } },
{ "type": "Feature", "properties": { "OBJECTID": 141, "name": "钟山风景区-明东陵遗址公园", "lng": 118.848217, "lat": 32.061154, "address": "江苏省南京市玄武区石象路7号中山陵园风景区明孝陵风景区近紫霞湖" }, "geometry": { "type": "Point", "coordinates": [ 118.836544650486388, 32.057501364552991 ] } },
{ "type": "Feature", "properties": { "OBJECTID": 142, "name": "南京国际青年文化公园", "lng": 118.711866, "lat": 31.999014, "address": "南京市建邺区江山大街隧道南京奥林匹克博物馆" }, "geometry": { "type": "Point", "coordinates": [ 118.700233957173253, 31.994998578449785 ] } },
{ "type": "Feature", "properties": { "OBJECTID": 143, "name": "江苏格冠生态园", "lng": 118.670849, "lat": 32.213709, "address": "珍珠路" }, "geometry": { "type": "Point", "coordinates": [ 118.659303970664027, 32.209647257703772 ] } },
{ "type": "Feature", "properties": { "OBJECTID": 144, "name": "丁香园", "lng": 118.787671, "lat": 32.00254, "address": "雨花路215号雨花台风景名胜区烈士陵园区内" }, "geometry": { "type": "Point", "coordinates": [ 118.776031675769516, 31.998382955575103 ] } },
{ "type": "Feature", "properties": { "OBJECTID": 145, "name": "南京城墙清凉门", "lng": 118.763798, "lat": 32.05348, "address": "南京市鼓楼区虎踞路59号" }, "geometry": { "type": "Point", "coordinates": [ 118.752006365710045, 32.0497331879344 ] } },
{ "type": "Feature", "properties": { "OBJECTID": 146, "name": "金地体育公园", "lng": 118.663935, "lat": 31.910374, "address": "江苏省南京市雨花台区新湖大道板桥新城莲花湖公园旁" }, "geometry": { "type": "Point", "coordinates": [ 118.652427931610163, 31.906377036591103 ] } },
{ "type": "Feature", "properties": { "OBJECTID": 147, "name": "麒麟中央公园2期", "lng": 118.900059, "lat": 32.024434, "address": "南京市江宁区沧波门南街" }, "geometry": { "type": "Point", "coordinates": [ 118.888572043411074, 32.020580371794566 ] } },
{ "type": "Feature", "properties": { "OBJECTID": 148, "name": "晨光1865科技创意产业园", "lng": 118.793612, "lat": 32.013425, "address": "南京市秦淮区应天大街388号" }, "geometry": { "type": "Point", "coordinates": [ 118.782004944151524, 32.009196261074841 ] } }
]
}
