{
"type": "FeatureCollection",
"name": "博物馆",
"crs": { "type": "name", "properties": { "name": "urn:ogc:def:crs:OGC:1.3:CRS84" } },
"xy_coordinate_resolution": 1e-15,
"features": [
{ "type": "Feature", "properties": { "OBJECTID": 1, "name": "南京博物院", "lng": 118.83165, "lat": 32.046772, "address": "江苏省南京市玄武区中山东路321号" }, "geometry": { "type": "Point", "coordinates": [ 118.820036482268137, 32.042793818039371 ] } },
{ "type": "Feature", "properties": { "OBJECTID": 2, "name": "六朝博物馆", "lng": 118.805928, "lat": 32.049002, "address": "江苏省南京市玄武区长江路302号" }, "geometry": { "type": "Point", "coordinates": [ 118.79433462477121, 32.044713364071548 ] } },
{ "type": "Feature", "properties": { "OBJECTID": 3, "name": "江苏江宁汤山方山国家地质公园博物馆", "lng": 119.046829, "lat": 32.06194, "address": "江苏省南京市江宁区汤山街道(在汤山国家地质公园内)" }, "geometry": { "type": "Point", "coordinates": [ 119.035037599873334, 32.057511602380693 ] } },
{ "type": "Feature", "properties": { "OBJECTID": 4, "name": "南京古生物博物馆", "lng": 118.801588, "lat": 32.065954, "address": "江苏省南京市玄武区北京东路39号" }, "geometry": { "type": "Point", "coordinates": [ 118.789969394258208, 32.061670890052049 ] } },
{ "type": "Feature", "properties": { "OBJECTID": 5, "name": "南京云锦博物馆", "lng": 118.75142, "lat": 32.04212, "address": "茶亭东街240号(侵华日军南京大屠杀遇难同胞纪念馆北)" }, "geometry": { "type": "Point", "coordinates": [ 118.739610008068681, 32.038500482785153 ] } },
{ "type": "Feature", "properties": { "OBJECTID": 6, "name": "南京市江宁区民俗博物馆", "lng": 118.932778, "lat": 31.864422, "address": "前杨柳村459号" }, "geometry": { "type": "Point", "coordinates": [ 118.921349948297006, 31.860250961265937 ] } },
{ "type": "Feature", "properties": { "OBJECTID": 7, "name": "南京奥林匹克博物馆", "lng": 118.711993, "lat": 31.998346, "address": "江苏省南京市建邺区金沙江西街9号青奥村内" }, "geometry": { "type": "Point", "coordinates": [ 118.70035962880344, 31.994332379183117 ] } },
{ "type": "Feature", "properties": { "OBJECTID": 8, "name": "南京市博物馆", "lng": 118.781787, "lat": 32.04045, "address": "江苏省南京市秦淮区王府大街朝天宫4号" }, "geometry": { "type": "Point", "coordinates": [ 118.770102784803854, 32.036393636204153 ] } },
{ "type": "Feature", "properties": { "OBJECTID": 9, "name": "江宁博物馆", "lng": 118.850074, "lat": 31.953899, "address": "南京市江宁区竹山路80号竹山公园内" }, "geometry": { "type": "Point", "coordinates": [ 118.838402704485802, 31.950251158297885 ] } },
{ "type": "Feature", "properties": { "OBJECTID": 10, "name": "南京市高淳区博物馆", "lng": 118.894804, "lat": 31.326022, "address": "南京市高淳区石臼湖南路7号1幢" }, "geometry": { "type": "Point", "coordinates": [ 118.883332254188403, 31.322251058795491 ] } },
{ "type": "Feature", "properties": { "OBJECTID": 11, "name": "南京地质博物馆", "lng": 118.813502, "lat": 32.051046, "address": "江苏省南京市玄武区珠江路700号" }, "geometry": { "type": "Point", "coordinates": [ 118.801913307798173, 32.046792485447781 ] } },
{ "type": "Feature", "properties": { "OBJECTID": 12, "name": "南京市溧水区博物馆", "lng": 118.993795, "lat": 31.648569, "address": "南京市溧水区天生桥大道500号" }, "geometry": { "type": "Point", "coordinates": [ 118.982075492124949, 31.644921254767244 ] } },
{ "type": "Feature", "properties": { "OBJECTID": 13, "name": "南京城墙博物馆", "lng": 118.789368, "lat": 32.018829, "address": "南京市秦淮区边营1号" }, "geometry": { "type": "Point", "coordinates": [ 118.777740314946797, 32.014652933718949 ] } },
{ "type": "Feature", "properties": { "OBJECTID": 14, "name": "南京理工大学-兵器博物馆", "lng": 118.863924, "lat": 32.029735, "address": "南京市玄武区孝陵卫街200号南京理工大学内" }, "geometry": { "type": "Point", "coordinates": [ 118.85227429991869, 32.026258901340583 ] } },
{ "type": "Feature", "properties": { "OBJECTID": 15, "name": "明孝陵博物馆", "lng": 118.849741, "lat": 32.050803, "address": "南京市玄武区四方城1号" }, "geometry": { "type": "Point", "coordinates": [ 118.838075677611101, 32.04717590438603 ] } },
{ "type": "Feature", "properties": { "OBJECTID": 16, "name": "可口可乐博物馆", "lng": 118.714552, "lat": 32.178103, "address": "江北新区新科二路26号" }, "geometry": { "type": "Point", "coordinates": [ 118.702861749896869, 32.174163402941012 ] } },
{ "type": "Feature", "properties": { "OBJECTID": 17, "name": "太平天国历史博物馆", "lng": 118.791877, "lat": 32.027193, "address": "南京市秦淮区瞻园路128号瞻园内" }, "geometry": { "type": "Point", "coordinates": [ 118.780257759987748, 32.022986045875975 ] } },
{ "type": "Feature", "properties": { "OBJECTID": 18, "name": "高淳陶瓷博物馆", "lng": 118.947332, "lat": 31.340664, "address": "江苏省南京市高淳区汶溪路387号" }, "geometry": { "type": "Point", "coordinates": [ 118.935869900488584, 31.336669021857414 ] } },
{ "type": "Feature", "properties": { "OBJECTID": 19, "name": "南京民间抗日战争博物馆", "lng": 118.768597, "lat": 31.979305, "address": "安德门大街48号" }, "geometry": { "type": "Point", "coordinates": [ 118.756834404690125, 31.97546551587639 ] } },
{ "type": "Feature", "properties": { "OBJECTID": 20, "name": "中国人民解放军海军101工厂军舰博物馆", "lng": 118.758015, "lat": 32.100211, "address": "南京市鼓楼区城河南路建宁路196号院北侧约70米" }, "geometry": { "type": "Point", "coordinates": [ 118.746201204437469, 32.096548588917557 ] } },
{ "type": "Feature", "properties": { "OBJECTID": 21, "name": "德基艺术博物馆(德基广场二期店)", "lng": 118.791012, "lat": 32.051054, "address": "中山路18号德基广场二期8F" }, "geometry": { "type": "Point", "coordinates": [ 118.779365329019413, 32.046857259528885 ] } },
{ "type": "Feature", "properties": { "OBJECTID": 22, "name": "江宁织造博物馆", "lng": 118.800474, "lat": 32.04845, "address": "江苏省南京市玄武区长江路123号" }, "geometry": { "type": "Point", "coordinates": [ 118.788867947241869, 32.044171246902629 ] } },
{ "type": "Feature", "properties": { "OBJECTID": 23, "name": "民国邮政博物馆", "lng": 118.863066, "lat": 32.047796, "address": "南京市玄武区中山陵园风景区邮政路1号" }, "geometry": { "type": "Point", "coordinates": [ 118.851397304624768, 32.044315612993699 ] } },
{ "type": "Feature", "properties": { "OBJECTID": 24, "name": "南京天文历史博物馆", "lng": 118.836023, "lat": 32.071241, "address": "南京市太平门外紫金山上" }, "geometry": { "type": "Point", "coordinates": [ 118.824376742598716, 32.067352187976908 ] } },
{ "type": "Feature", "properties": { "OBJECTID": 25, "name": "南京近代建筑博物馆", "lng": 118.800379, "lat": 32.051782, "address": "江苏省南京市玄武区杨将军巷9号南京D9街区3号楼" }, "geometry": { "type": "Point", "coordinates": [ 118.788769066235858, 32.04750353144874 ] } },
{ "type": "Feature", "properties": { "OBJECTID": 26, "name": "南京永银钱币博物馆", "lng": 118.794361, "lat": 32.012465, "address": "南京市秦淮区应天大街388号南京晨光1865文化创意产业园C2幢" }, "geometry": { "type": "Point", "coordinates": [ 118.782757126519257, 32.008228330030946 ] } },
{ "type": "Feature", "properties": { "OBJECTID": 27, "name": "百家湖博物馆", "lng": 118.814062, "lat": 31.946438, "address": "南京市江宁区利源中路73号百家湖商业中心F1" }, "geometry": { "type": "Point", "coordinates": [ 118.802470705675972, 31.942162090146535 ] } },
{ "type": "Feature", "properties": { "OBJECTID": 28, "name": "珍宝博物馆", "lng": 119.016822, "lat": 32.08888, "address": "江苏省南京市江宁区汤山街道圣湖路8号" }, "geometry": { "type": "Point", "coordinates": [ 119.005035639556297, 32.084893655684134 ] } },
{ "type": "Feature", "properties": { "OBJECTID": 29, "name": "江苏省中医药博物馆", "lng": 118.951798, "lat": 32.110819, "address": "江苏省南京市栖霞区仙林大道138号南京中医药大学" }, "geometry": { "type": "Point", "coordinates": [ 118.94025633778945, 32.10693048027413 ] } },
{ "type": "Feature", "properties": { "OBJECTID": 30, "name": "大报恩寺博物馆", "lng": 118.789441, "lat": 32.015439, "address": "江苏省南京市秦淮区中华门外雨花路1号" }, "geometry": { "type": "Point", "coordinates": [ 118.777814192834114, 32.01126121830891 ] } },
{ "type": "Feature", "properties": { "OBJECTID": 31, "name": "六合博物馆", "lng": 118.841305, "lat": 32.334693, "address": "江苏省南京市六合区王桥路157号" }, "geometry": { "type": "Point", "coordinates": [ 118.829627075449139, 32.330949011586178 ] } },
{ "type": "Feature", "properties": { "OBJECTID": 32, "name": "中国供销社博物馆", "lng": 119.066666, "lat": 31.514495, "address": "南京市溧水区晶桥镇石山下33号南塘小院南边" }, "geometry": { "type": "Point", "coordinates": [ 119.054845567195144, 31.510146664487191 ] } },
{ "type": "Feature", "properties": { "OBJECTID": 33, "name": "南京紫金山昆虫博物馆", "lng": 118.849909, "lat": 32.058416, "address": "南京市玄武区四方城西路26号" }, "geometry": { "type": "Point", "coordinates": [ 118.838235770254329, 32.054791443255446 ] } },
{ "type": "Feature", "properties": { "OBJECTID": 34, "name": "气象历史博物馆", "lng": 118.796941, "lat": 32.066749, "address": "江苏省南京市玄武区北极阁2号" }, "geometry": { "type": "Point", "coordinates": [ 118.785306549913003, 32.062491985950956 ] } },
{ "type": "Feature", "properties": { "OBJECTID": 35, "name": "江南丝绸文化博物馆", "lng": 118.777966, "lat": 32.031913, "address": "南京市秦淮区来凤街国创园41栋" }, "geometry": { "type": "Point", "coordinates": [ 118.766268337080675, 32.027924254293112 ] } },
{ "type": "Feature", "properties": { "OBJECTID": 36, "name": "南京金箔博物馆", "lng": 119.086933, "lat": 32.211261, "address": "龙潭疏港路1号" }, "geometry": { "type": "Point", "coordinates": [ 119.074891969432954, 32.207329384155457 ] } },
{ "type": "Feature", "properties": { "OBJECTID": 37, "name": "南京钢铁博物馆", "lng": 118.753171, "lat": 32.206105, "address": "江苏省南京市六合区大厂街道幸福路30号" }, "geometry": { "type": "Point", "coordinates": [ 118.741326596657444, 32.202500892274628 ] } },
{ "type": "Feature", "properties": { "OBJECTID": 38, "name": "中国科举博物馆-南馆", "lng": 118.797464, "lat": 32.026779, "address": "南京市秦淮区贡院街95号(近夫子庙邮局)南京中国科举博物馆(江南贡院)内" }, "geometry": { "type": "Point", "coordinates": [ 118.785868544349086, 32.022518138446706 ] } },
{ "type": "Feature", "properties": { "OBJECTID": 39, "name": "中国药科大学(江宁校区)-药学博物馆", "lng": 118.921419, "lat": 31.90823, "address": "江苏省南京市江宁区中国药科大学江宁校区" }, "geometry": { "type": "Point", "coordinates": [ 118.910015454317204, 31.904073305683351 ] } },
{ "type": "Feature", "properties": { "OBJECTID": 40, "name": "中华虎凤蝶自然博物馆", "lng": 118.604381, "lat": 32.126913, "address": "岔琥路水墨大埝旅游区" }, "geometry": { "type": "Point", "coordinates": [ 118.592842870134319, 32.12329808286168 ] } },
{ "type": "Feature", "properties": { "OBJECTID": 41, "name": "横梁雨花石博物馆", "lng": 118.934656, "lat": 32.327399, "address": "江苏省南京市六合区兴镇路153号" }, "geometry": { "type": "Point", "coordinates": [ 118.92316716452261, 32.323316549249704 ] } },
{ "type": "Feature", "properties": { "OBJECTID": 42, "name": "江苏警官学院-民国警察史博物馆", "lng": 118.664, "lat": 32.0981, "address": "江苏省南京市浦口区顶山街道三宫48号江苏警官学院图书馆五楼" }, "geometry": { "type": "Point", "coordinates": [ 118.652454526203471, 32.094138257611029 ] } },
{ "type": "Feature", "properties": { "OBJECTID": 43, "name": "冶山铁矿博物馆", "lng": 118.965399, "lat": 32.523101, "address": "江苏省南京市六合区冶山镇望月村1号东南方向120米" }, "geometry": { "type": "Point", "coordinates": [ 118.953717761083865, 32.519439447841883 ] } },
{ "type": "Feature", "properties": { "OBJECTID": 44, "name": "南京手语博物馆", "lng": 118.821982, "lat": 32.036594, "address": "江苏省南京市秦淮区御道街32号南京市聋人学校F6" }, "geometry": { "type": "Point", "coordinates": [ 118.810401580174201, 32.032442603455863 ] } },
{ "type": "Feature", "properties": { "OBJECTID": 45, "name": "中华门", "lng": 118.788069, "lat": 32.018118, "address": "南京市秦淮区中华路与东干长巷交叉路口往东北约100米(南京夫子庙-秦淮风光带)" }, "geometry": { "type": "Point", "coordinates": [ 118.776434824074272, 32.013959983521005 ] } },
{ "type": "Feature", "properties": { "OBJECTID": 46, "name": "南京中国科举博物馆(江南贡院)-北馆", "lng": 118.797063, "lat": 32.027664, "address": "江苏省南京市秦淮区贡院街95号对面" }, "geometry": { "type": "Point", "coordinates": [ 118.785465473570696, 32.02340619313992 ] } },
{ "type": "Feature", "properties": { "OBJECTID": 47, "name": "南京越剧博物馆", "lng": 118.795074, "lat": 32.016906, "address": "南京市秦淮区边营35号" }, "geometry": { "type": "Point", "coordinates": [ 118.783473038016808, 32.012663561566946 ] } },
{ "type": "Feature", "properties": { "OBJECTID": 48, "name": "南京恋爱博物馆", "lng": 118.789602, "lat": 32.045067, "address": "石鼓路56号金鹰大酒楼王府总店1层半" }, "geometry": { "type": "Point", "coordinates": [ 118.777954938133504, 32.040888830930605 ] } },
{ "type": "Feature", "properties": { "OBJECTID": 49, "name": "南京镜见律师博物馆", "lng": 118.787772, "lat": 32.03117, "address": "江苏省南京市秦淮区中山南路400号熙南里街区20号" }, "geometry": { "type": "Point", "coordinates": [ 118.776129426140244, 32.027017742507532 ] } },
{ "type": "Feature", "properties": { "OBJECTID": 50, "name": "南京消防博物馆", "lng": 118.787683, "lat": 32.064308, "address": "江苏省南京市鼓楼区湖南路街道北京西路1号-1" }, "geometry": { "type": "Point", "coordinates": [ 118.776007584439071, 32.06015653668495 ] } },
{ "type": "Feature", "properties": { "OBJECTID": 51, "name": "遇见博物馆·南京馆meet you museum", "lng": 118.776586, "lat": 32.031726, "address": "江苏省南京市秦淮区菱角市66号国创园19栋" }, "geometry": { "type": "Point", "coordinates": [ 118.764880697934686, 32.027762188211952 ] } },
{ "type": "Feature", "properties": { "OBJECTID": 52, "name": "江苏警察博物馆", "lng": 118.802745, "lat": 32.049384, "address": "南京市玄武区长江路292号总统府内" }, "geometry": { "type": "Point", "coordinates": [ 118.791144288078726, 32.0450975381559 ] } },
{ "type": "Feature", "properties": { "OBJECTID": 53, "name": "南京翡翠博物馆", "lng": 118.800899, "lat": 32.004613, "address": "江苏省南京市秦淮区中华门街道晨光路39" }, "geometry": { "type": "Point", "coordinates": [ 118.789316623596093, 32.00032742199641 ] } },
{ "type": "Feature", "properties": { "OBJECTID": 54, "name": "南京市民俗博物馆(甘熙故居)", "lng": 118.787411, "lat": 32.031976, "address": "江苏省南京市秦淮区中山南路与府西街交叉口正西方向80米左右" }, "geometry": { "type": "Point", "coordinates": [ 118.7757658647688, 32.027829062437448 ] } },
{ "type": "Feature", "properties": { "OBJECTID": 55, "name": "南京师范大学珍稀动植物博物馆", "lng": 118.922244, "lat": 32.12189, "address": "南京市栖霞区文苑路1号南京师范大学生科院内部一楼" }, "geometry": { "type": "Point", "coordinates": [ 118.91082109249885, 32.117776481990198 ] } },
{ "type": "Feature", "properties": { "OBJECTID": 56, "name": "甘熙故居", "lng": 118.788228, "lat": 32.032189, "address": "南京市秦淮区南捕厅15号" }, "geometry": { "type": "Point", "coordinates": [ 118.776586951518979, 32.028030187796226 ] } },
{ "type": "Feature", "properties": { "OBJECTID": 57, "name": "清城韵翠玉博物馆", "lng": 118.808036, "lat": 32.067983, "address": "江苏省南京市玄武区玄武湖公园临湖厅1楼" }, "geometry": { "type": "Point", "coordinates": [ 118.796429566104962, 32.063698725688035 ] } },
{ "type": "Feature", "properties": { "OBJECTID": 58, "name": "江苏省五环彩票博物馆", "lng": 118.764909, "lat": 32.05288, "address": "江苏省南京市鼓楼区虎踞路69号金厦山庄1幢" }, "geometry": { "type": "Point", "coordinates": [ 118.753122551871797, 32.049116624987619 ] } },
{ "type": "Feature", "properties": { "OBJECTID": 59, "name": "夫子庙雨花石博物馆", "lng": 118.79684, "lat": 32.027167, "address": "江苏省南京市秦淮区夫子庙贡院街122号秦淮礼物B1层" }, "geometry": { "type": "Point", "coordinates": [ 118.785241956294144, 32.022910879003774 ] } },
{ "type": "Feature", "properties": { "OBJECTID": 60, "name": "雨花石地质博物馆", "lng": 119.043924, "lat": 32.373754, "address": "江苏省南京市六合区X304(新程线)" }, "geometry": { "type": "Point", "coordinates": [ 119.03214554427349, 32.369382175064345 ] } },
{ "type": "Feature", "properties": { "OBJECTID": 61, "name": "六合国家地质公园博物馆", "lng": 118.941929, "lat": 32.468295, "address": "S353南京石柱林风景区" }, "geometry": { "type": "Point", "coordinates": [ 118.930414170031355, 32.464278141905282 ] } },
{ "type": "Feature", "properties": { "OBJECTID": 62, "name": "江苏省地质资料馆", "lng": 118.743156, "lat": 31.942408, "address": "江苏省南京市雨花台区临浦路89号" }, "geometry": { "type": "Point", "coordinates": [ 118.731340912010225, 31.938771495826067 ] } },
{ "type": "Feature", "properties": { "OBJECTID": 63, "name": "金陵竹刻艺术博物馆", "lng": 118.885703, "lat": 32.003756, "address": "江苏省南京市江宁区润发路9号南方时代广场F5" }, "geometry": { "type": "Point", "coordinates": [ 118.874134133664384, 32.000142358700423 ] } },
{ "type": "Feature", "properties": { "OBJECTID": 64, "name": "南京中国近代史遗址博物馆-东苑", "lng": 118.804424, "lat": 32.049956, "address": "南京市玄武区长江路292号总统府内" }, "geometry": { "type": "Point", "coordinates": [ 118.792826613783149, 32.04566709950835 ] } },
{ "type": "Feature", "properties": { "OBJECTID": 65, "name": "南京税收博物馆", "lng": 118.807079, "lat": 32.03993, "address": "南京市秦淮区复成里5号" }, "geometry": { "type": "Point", "coordinates": [ 118.79549742414855, 32.03564347400912 ] } },
{ "type": "Feature", "properties": { "OBJECTID": 66, "name": "片仔癀博物馆", "lng": 118.794831, "lat": 32.018052, "address": "南京市秦淮区老城南门东景区陶家巷9号" }, "geometry": { "type": "Point", "coordinates": [ 118.783228832173194, 32.01381209631927 ] } },
{ "type": "Feature", "properties": { "OBJECTID": 67, "name": "轻武器大观", "lng": 118.685631, "lat": 32.139626, "address": "南京市浦口区龙谷路9号华昌龙之谷B馆国防科技馆" }, "geometry": { "type": "Point", "coordinates": [ 118.674121068979076, 32.13541969816459 ] } },
{ "type": "Feature", "properties": { "OBJECTID": 68, "name": "世界昆虫邮票博物馆", "lng": 118.94074, "lat": 31.658063, "address": "南京市溧水区石湫街道上方村" }, "geometry": { "type": "Point", "coordinates": [ 118.929319870669119, 31.653938430067495 ] } },
{ "type": "Feature", "properties": { "OBJECTID": 69, "name": "钰缘泉博物馆", "lng": 118.774947, "lat": 32.025412, "address": "南京市秦淮区集庆路来凤街1号" }, "geometry": { "type": "Point", "coordinates": [ 118.763237018824981, 32.021477505519606 ] } },
{ "type": "Feature", "properties": { "OBJECTID": 70, "name": "汤山虫博馆", "lng": 119.046786, "lat": 32.062495, "address": "江苏省南京市江宁区汤山街道江苏江宁汤山方山国家地质公园博物馆" }, "geometry": { "type": "Point", "coordinates": [ 119.03499431486253, 32.058066722315722 ] } },
{ "type": "Feature", "properties": { "OBJECTID": 71, "name": "万景园艺术博物馆", "lng": 118.723629, "lat": 32.038554, "address": "南京市建邺区河堤路清河雅苑西北侧约290米" }, "geometry": { "type": "Point", "coordinates": [ 118.711910121784555, 32.034744604414279 ] } },
{ "type": "Feature", "properties": { "OBJECTID": 72, "name": "世界轮滑博物馆", "lng": 118.711982, "lat": 31.998348, "address": "南京国际青年文化公园B1奥林匹克博物馆内" }, "geometry": { "type": "Point", "coordinates": [ 118.700348704587256, 31.994334198207625 ] } },
{ "type": "Feature", "properties": { "OBJECTID": 73, "name": "南京大学(仙林校区)-校史博物馆", "lng": 118.96507, "lat": 32.120248, "address": "江苏省南京市栖霞区仙林大道163号南京大学仙林校区内" }, "geometry": { "type": "Point", "coordinates": [ 118.953438927373057, 32.116579762798686 ] } },
{ "type": "Feature", "properties": { "OBJECTID": 74, "name": "何日复归来·大英博物馆(南京站)", "lng": 118.789266, "lat": 32.067305, "address": "江苏省南京市鼓楼区中山北路8号绿地中心·紫峰购物广场F4层" }, "geometry": { "type": "Point", "coordinates": [ 118.777596925368769, 32.063131377827538 ] } },
{ "type": "Feature", "properties": { "OBJECTID": 75, "name": "蓝旗街溯源博物馆", "lng": 118.828705, "lat": 32.031964, "address": "南京市秦淮区蓝旗街世界之窗创意产业园" }, "geometry": { "type": "Point", "coordinates": [ 118.817114442713503, 32.027928825347139 ] } },
{ "type": "Feature", "properties": { "OBJECTID": 76, "name": "浮针博物馆", "lng": 118.737178, "lat": 31.988766, "address": "江苏省南京市建邺区沙洲街道嘉陵江东街50号新城科技园D栋7层709室" }, "geometry": { "type": "Point", "coordinates": [ 118.725391440006604, 31.985113496639915 ] } },
{ "type": "Feature", "properties": { "OBJECTID": 77, "name": "南京大学(鼓楼校区)-校史博物馆", "lng": 118.7878, "lat": 32.06086, "address": "江苏省南京市鼓楼区汉口路22号南京大学鼓楼校区" }, "geometry": { "type": "Point", "coordinates": [ 118.776127761799501, 32.056706678349805 ] } },
{ "type": "Feature", "properties": { "OBJECTID": 78, "name": "首都大戏院旧址博物馆", "lng": 118.797688, "lat": 32.027878, "address": "夫子庙贡院街84号" }, "geometry": { "type": "Point", "coordinates": [ 118.786092644700958, 32.023615615883045 ] } },
{ "type": "Feature", "properties": { "OBJECTID": 79, "name": "南京博物馆·博苏堂(南京禄口国际机场店)", "lng": 118.880582, "lat": 31.734305, "address": "南京市江宁区禄口街道空港路南京禄口国际机场F3层" }, "geometry": { "type": "Point", "coordinates": [ 118.868985236171525, 31.730699484954545 ] } },
{ "type": "Feature", "properties": { "OBJECTID": 80, "name": "广凌玉石博物馆", "lng": 118.750688, "lat": 32.019669, "address": "南京市建邺区恒山路宏图上水云锦二期" }, "geometry": { "type": "Point", "coordinates": [ 118.738894711316462, 32.016051950814386 ] } },
{ "type": "Feature", "properties": { "OBJECTID": 81, "name": "茶文化博物馆(赏心亭店)", "lng": 118.775427, "lat": 32.0349, "address": "南京市秦淮区双塘凤台路8-1号F1" }, "geometry": { "type": "Point", "coordinates": [ 118.76371239036898, 32.030957239429029 ] } },
{ "type": "Feature", "properties": { "OBJECTID": 82, "name": "黄龙岘茶文化博物馆", "lng": 118.698065, "lat": 31.786357, "address": "南京市江宁区江宁街道牌坊社区龙坊路1号" }, "geometry": { "type": "Point", "coordinates": [ 118.686539771363528, 31.782115454321097 ] } },
{ "type": "Feature", "properties": { "OBJECTID": 83, "name": "南京中华指纹博物馆", "lng": 118.664083, "lat": 32.098378, "address": "江苏省南京市浦口区石佛寺三宫48号江苏警官学院图书馆2楼" }, "geometry": { "type": "Point", "coordinates": [ 118.652537976219932, 32.094414809408683 ] } },
{ "type": "Feature", "properties": { "OBJECTID": 84, "name": "中国书院历史陈列馆", "lng": 118.794709, "lat": 32.027611, "address": "江苏省南京市秦淮区夫子庙街道集京宁路1号" }, "geometry": { "type": "Point", "coordinates": [ 118.783102106452063, 32.023373551999526 ] } },
{ "type": "Feature", "properties": { "OBJECTID": 85, "name": "黑马世界漫画博物馆", "lng": 119.00896, "lat": 32.074725, "address": "南京市江宁区汤山街道圣湖路8号江苏园博园时光艺谷" }, "geometry": { "type": "Point", "coordinates": [ 118.99716097092319, 32.070901761626445 ] } },
{ "type": "Feature", "properties": { "OBJECTID": 86, "name": "华夏文房博物馆", "lng": 119.04711, "lat": 31.628501, "address": "南京市溧水区金井路与致远路交叉路口往北约170米" }, "geometry": { "type": "Point", "coordinates": [ 119.035373691873247, 31.624005696616649 ] } },
{ "type": "Feature", "properties": { "OBJECTID": 87, "name": "透明博物馆", "lng": 118.746853, "lat": 32.028975, "address": "南京市建邺区金鹰天地F201" }, "geometry": { "type": "Point", "coordinates": [ 118.735054982330084, 32.025369420428419 ] } },
{ "type": "Feature", "properties": { "OBJECTID": 88, "name": "青奥博物馆", "lng": 118.712246, "lat": 31.996143, "address": "南京市建邺区青奥北路南京青奥村东北侧约60米" }, "geometry": { "type": "Point", "coordinates": [ 118.70060926985316, 31.992132564163466 ] } },
{ "type": "Feature", "properties": { "OBJECTID": 89, "name": "中华农业文明博物馆", "lng": 118.84971, "lat": 32.041802, "address": "江苏省南京市玄武区卫岗1号" }, "geometry": { "type": "Point", "coordinates": [ 118.838054608231516, 32.038174827426054 ] } },
{ "type": "Feature", "properties": { "OBJECTID": 90, "name": "傅抱石纪念馆", "lng": 118.774796, "lat": 32.061028, "address": "江苏省南京市鼓楼区汉口西路132号" }, "geometry": { "type": "Point", "coordinates": [ 118.763051175745858, 32.057095975646007 ] } },
{ "type": "Feature", "properties": { "OBJECTID": 91, "name": "中华绒螯蟹博物馆", "lng": 118.901653, "lat": 31.267907, "address": "江苏省南京市高淳区永胜圩路" }, "geometry": { "type": "Point", "coordinates": [ 118.890225970847922, 31.264037307807449 ] } },
{ "type": "Feature", "properties": { "OBJECTID": 92, "name": "珍宝博物馆", "lng": 118.686973, "lat": 32.141263, "address": "南京市浦口区龙谷路9号华昌龙之谷E馆" }, "geometry": { "type": "Point", "coordinates": [ 118.675459638113111, 32.13705407805034 ] } },
{ "type": "Feature", "properties": { "OBJECTID": 93, "name": "南京雨花茶博物馆", "lng": 118.78463, "lat": 32.003489, "address": "雨花路215号南京雨花台风景区内(西侧)" }, "geometry": { "type": "Point", "coordinates": [ 118.772974836082739, 31.999379263097005 ] } },
{ "type": "Feature", "properties": { "OBJECTID": 94, "name": "洋酒博物馆(百家湖店)", "lng": 118.827677, "lat": 31.947344, "address": "江苏省南京市江宁区双龙大道1350号" }, "geometry": { "type": "Point", "coordinates": [ 118.816066280648215, 31.943261869628866 ] } },
{ "type": "Feature", "properties": { "OBJECTID": 95, "name": "南京博物院(南农大分院)", "lng": 118.849774, "lat": 32.041597, "address": "南京市玄武区卫岗1号" }, "geometry": { "type": "Point", "coordinates": [ 118.838118714983537, 32.03797087309372 ] } },
{ "type": "Feature", "properties": { "OBJECTID": 96, "name": "观道博物馆", "lng": 118.811995, "lat": 32.109554, "address": "迈皋桥和燕路东井村48号古玩市场" }, "geometry": { "type": "Point", "coordinates": [ 118.800409396940097, 32.105303914116732 ] } },
{ "type": "Feature", "properties": { "OBJECTID": 97, "name": "南京雨花石博物馆", "lng": 118.790404, "lat": 32.003235, "address": "南京市雨花台区雨花路215号雨花台风景名胜区雨花石文化区内" }, "geometry": { "type": "Point", "coordinates": [ 118.778778927032363, 31.999040538933251 ] } },
{ "type": "Feature", "properties": { "OBJECTID": 98, "name": "古文化博物馆", "lng": 119.197739, "lat": 31.633499, "address": "南京市溧水区白马镇白袁路88号周园内" }, "geometry": { "type": "Point", "coordinates": [ 119.185935834763697, 31.629415789217735 ] } },
{ "type": "Feature", "properties": { "OBJECTID": 99, "name": "中国新四军历史研究馆", "lng": 118.791337, "lat": 32.099256, "address": "江苏省南京市鼓楼区中央北路2号" }, "geometry": { "type": "Point", "coordinates": [ 118.779685896720494, 32.095065228392443 ] } },
{ "type": "Feature", "properties": { "OBJECTID": 100, "name": "遇见博物馆南京奥体馆", "lng": 118.734455, "lat": 32.014749, "address": "江苏省南京市建邺区奥体中心2楼" }, "geometry": { "type": "Point", "coordinates": [ 118.722692797950288, 32.011082590712839 ] } },
{ "type": "Feature", "properties": { "OBJECTID": 101, "name": "古相机艺术博览馆", "lng": 118.848371, "lat": 32.048321, "address": "江苏省南京市玄武区卫岗55号前线大院C5栋" }, "geometry": { "type": "Point", "coordinates": [ 118.83671098349545, 32.044671240981415 ] } },
{ "type": "Feature", "properties": { "OBJECTID": 102, "name": "文心馆", "lng": 118.728609, "lat": 31.905435, "address": "南京市江宁区板汤线与牛首大道交叉路口往东北约200米" }, "geometry": { "type": "Point", "coordinates": [ 118.716882994253467, 31.901672737541784 ] } },
{ "type": "Feature", "properties": { "OBJECTID": 103, "name": "古床博物馆", "lng": 118.572841, "lat": 32.146175, "address": "姚徐老街4栋02号" }, "geometry": { "type": "Point", "coordinates": [ 118.56139291031603, 32.142055817662154 ] } },
{ "type": "Feature", "properties": { "OBJECTID": 104, "name": "南京师范大学(仙林校区)博物馆", "lng": 118.91042, "lat": 32.107441, "address": "南京市栖霞区仙林大道163号南京大学仙林校区内" }, "geometry": { "type": "Point", "coordinates": [ 118.89895895178941, 32.103433184586052 ] } },
{ "type": "Feature", "properties": { "OBJECTID": 105, "name": "中国特殊教育博物馆", "lng": 118.83689, "lat": 32.13506, "address": "江苏省南京市栖霞区特殊教育师范学院附属幼儿园神农路3号" }, "geometry": { "type": "Point", "coordinates": [ 118.825273418339549, 32.131212413936638 ] } },
{ "type": "Feature", "properties": { "OBJECTID": 106, "name": "江南造币博物馆", "lng": 118.776723, "lat": 32.030392, "address": "南京市秦淮区来凤街国创园" }, "geometry": { "type": "Point", "coordinates": [ 118.765019549399526, 32.026425661005547 ] } },
{ "type": "Feature", "properties": { "OBJECTID": 107, "name": "南京市博物馆(朝天宫景区)-多功能展厅", "lng": 118.782038, "lat": 32.041702, "address": "建邺路朝天宫4号南京市博物馆内" }, "geometry": { "type": "Point", "coordinates": [ 118.770353862755783, 32.037641275725711 ] } },
{ "type": "Feature", "properties": { "OBJECTID": 108, "name": "毗卢寺史料博物馆", "lng": 118.809526, "lat": 32.049164, "address": "汉府街4号毗卢寺" }, "geometry": { "type": "Point", "coordinates": [ 118.79793739844358, 32.044885056460316 ] } },
{ "type": "Feature", "properties": { "OBJECTID": 109, "name": "中国新四军历史研究馆", "lng": 119.146731, "lat": 31.529373, "address": "江苏省南京市溧水区石头寨路" }, "geometry": { "type": "Point", "coordinates": [ 119.13489873737565, 31.525003622112933 ] } },
{ "type": "Feature", "properties": { "OBJECTID": 110, "name": "观朴艺术博物馆", "lng": 118.849646, "lat": 32.050577, "address": "江苏省南京市玄武区孝陵卫街道四方城1号3号楼" }, "geometry": { "type": "Point", "coordinates": [ 118.837981092112742, 32.046948371697376 ] } },
{ "type": "Feature", "properties": { "OBJECTID": 111, "name": "桐音馆", "lng": 118.803395, "lat": 32.050086, "address": "南京市玄武区长江路292号总统府内" }, "geometry": { "type": "Point", "coordinates": [ 118.791795132776173, 32.045798241316248 ] } },
{ "type": "Feature", "properties": { "OBJECTID": 112, "name": "婚俗博物馆", "lng": 118.572563, "lat": 32.146377, "address": "汤盘公路与岔茅线交叉路口往南约100米" }, "geometry": { "type": "Point", "coordinates": [ 118.561114674197555, 32.142255729450845 ] } },
{ "type": "Feature", "properties": { "OBJECTID": 113, "name": "全国学生抗日爱国运动珍珠桥惨案旧址", "lng": 118.802262, "lat": 32.054404, "address": "江苏省南京市玄武区珠江路与太平北路交叉路口南侧路西" }, "geometry": { "type": "Point", "coordinates": [ 118.790654754727839, 32.050118562542004 ] } },
{ "type": "Feature", "properties": { "OBJECTID": 114, "name": "南京市博物馆(朝天宫景区)-临时展厅", "lng": 118.781559, "lat": 32.039813, "address": "王府大街朝天宫4号南京市博物馆" }, "geometry": { "type": "Point", "coordinates": [ 118.769874168254844, 32.035760591955011 ] } },
{ "type": "Feature", "properties": { "OBJECTID": 115, "name": "南京博物院-二期", "lng": 118.830429, "lat": 32.045229, "address": "江苏省南京市玄武区中山东路321号南京博物院" }, "geometry": { "type": "Point", "coordinates": [ 118.818820524922998, 32.041226771476694 ] } },
{ "type": "Feature", "properties": { "OBJECTID": 116, "name": "石城之印微博物馆", "lng": 118.779612, "lat": 32.045243, "address": "南京市秦淮区侯家桥48号朝天宫街道汉西门社区居委会" }, "geometry": { "type": "Point", "coordinates": [ 118.767910230319586, 32.041224511989974 ] } },
{ "type": "Feature", "properties": { "OBJECTID": 117, "name": "晚清与民国历史陈列", "lng": 118.804594, "lat": 32.049291, "address": "南京市玄武区长江路292号总统府东苑内" }, "geometry": { "type": "Point", "coordinates": [ 118.792997697478896, 32.045002041316209 ] } },
{ "type": "Feature", "properties": { "OBJECTID": 118, "name": "藏宝博物馆", "lng": 118.686153, "lat": 32.141432, "address": "南京市浦口区配套路" }, "geometry": { "type": "Point", "coordinates": [ 118.674641407418349, 32.137224612844058 ] } },
{ "type": "Feature", "properties": { "OBJECTID": 119, "name": "林散之书画陈列馆", "lng": 118.625029, "lat": 32.061782, "address": "江苏省南京市浦口区雨山路48号" }, "geometry": { "type": "Point", "coordinates": [ 118.613404389320053, 32.058352324211917 ] } },
{ "type": "Feature", "properties": { "OBJECTID": 120, "name": "长风堂博物馆", "lng": 118.805018, "lat": 32.063405, "address": "南京市玄武区北京东路22号和平大厦16层" }, "geometry": { "type": "Point", "coordinates": [ 118.793409343058869, 32.05911584363885 ] } },
{ "type": "Feature", "properties": { "OBJECTID": 121, "name": "牙齿小小博物馆", "lng": 118.817838, "lat": 31.919363, "address": "苏源大道19号九龙湖国际企业总部园A2幢九龙湖滨天地F2" }, "geometry": { "type": "Point", "coordinates": [ 118.806270824854124, 31.915127074446065 ] } },
{ "type": "Feature", "properties": { "OBJECTID": 122, "name": "总统府-文物史料陈列", "lng": 118.804046, "lat": 32.051127, "address": "南京市玄武区长江路292号总统府内" }, "geometry": { "type": "Point", "coordinates": [ 118.792446525620321, 32.046838348985091 ] } },
{ "type": "Feature", "properties": { "OBJECTID": 123, "name": "白马雕塑", "lng": 118.821951, "lat": 32.06641, "address": "南京市玄武区龙蟠路与太平门路交叉口白马公园内" }, "geometry": { "type": "Point", "coordinates": [ 118.810341839889986, 32.06225771692079 ] } },
{ "type": "Feature", "properties": { "OBJECTID": 124, "name": "地球早期生命", "lng": 118.801638, "lat": 32.065654, "address": "北京东路39号南京古生物博物馆F2" }, "geometry": { "type": "Point", "coordinates": [ 118.790019715719666, 32.061370697271734 ] } },
{ "type": "Feature", "properties": { "OBJECTID": 125, "name": "南京瀹茶文化博物馆", "lng": 118.79395, "lat": 32.012213, "address": "江苏省南京市秦淮区应天大街388号精道世家两岸艺术交流中心处南京晨光1865文化创意产业园B区B6幢" }, "geometry": { "type": "Point", "coordinates": [ 118.782344328892734, 32.007980410632534 ] } },
{ "type": "Feature", "properties": { "OBJECTID": 126, "name": "苏宁环球博物馆", "lng": 118.730584, "lat": 32.039, "address": "南京市鼓楼区集庆门大街苏宁环球国际中心" }, "geometry": { "type": "Point", "coordinates": [ 118.718825040323381, 32.035291733499413 ] } },
{ "type": "Feature", "properties": { "OBJECTID": 127, "name": "郑和墓史料陈列馆", "lng": 118.73913, "lat": 31.913178, "address": "南京市江宁区牛首山郑和文化园内" }, "geometry": { "type": "Point", "coordinates": [ 118.727353622953174, 31.909524457150692 ] } },
{ "type": "Feature", "properties": { "OBJECTID": 128, "name": "白衣庵民警微博物馆", "lng": 118.788478, "lat": 32.034277, "address": "南京市秦淮区白衣庵11号" }, "geometry": { "type": "Point", "coordinates": [ 118.776836395197961, 32.030114658201583 ] } },
{ "type": "Feature", "properties": { "OBJECTID": 129, "name": "摩登博物馆(南京万象天地中山南路店)", "lng": 118.786264, "lat": 32.027287, "address": "中山南路666号南京万象天地F1" }, "geometry": { "type": "Point", "coordinates": [ 118.77461628468204, 32.02315713481827 ] } },
{ "type": "Feature", "properties": { "OBJECTID": 130, "name": "漆艺花雕博物馆", "lng": 118.572937, "lat": 32.145872, "address": "南京市浦口区岔茅线侯冲风景区" }, "geometry": { "type": "Point", "coordinates": [ 118.561489124578671, 32.141753543781647 ] } },
{ "type": "Feature", "properties": { "OBJECTID": 131, "name": "龙尚村史馆", "lng": 118.989716, "lat": 32.036506, "address": "南京市江宁区九乡河路与龙尚路交叉路口往西北约180米" }, "geometry": { "type": "Point", "coordinates": [ 118.977959913431448, 32.032953441668987 ] } },
{ "type": "Feature", "properties": { "OBJECTID": 132, "name": "中国古代书院历史文化藏品馆", "lng": 118.767991, "lat": 32.055524, "address": "清凉山路83号清凉山公园内" }, "geometry": { "type": "Point", "coordinates": [ 118.756215746457812, 32.051711390227752 ] } },
{ "type": "Feature", "properties": { "OBJECTID": 133, "name": "幻觉博物馆(南京店)", "lng": 118.786896, "lat": 32.047589, "address": "新街口金鹰国际购物中心A座6F6018" }, "geometry": { "type": "Point", "coordinates": [ 118.775232160713941, 32.043449342457109 ] } },
{ "type": "Feature", "properties": { "OBJECTID": 134, "name": "熹合里礼TL·礼物博物馆", "lng": 118.834124, "lat": 31.936307, "address": "江苏省南京市江宁区秣陵街道三玖彩虹谷科创园" }, "geometry": { "type": "Point", "coordinates": [ 118.822504383789749, 31.932350966783616 ] } },
{ "type": "Feature", "properties": { "OBJECTID": 135, "name": "南京爱情", "lng": 118.798152, "lat": 32.071441, "address": "南京市玄武区台城路西家大塘文化创意产业园" }, "geometry": { "type": "Point", "coordinates": [ 118.786519899857367, 32.06717584605255 ] } },
{ "type": "Feature", "properties": { "OBJECTID": 136, "name": "南京博物院-考古江苏馆", "lng": 118.831129, "lat": 32.047114, "address": "南京市玄武区中山东路321号南京博物院特展馆11号展厅" }, "geometry": { "type": "Point", "coordinates": [ 118.819516542127531, 32.043125456483878 ] } },
{ "type": "Feature", "properties": { "OBJECTID": 137, "name": "南京传统民居建筑艺术", "lng": 118.788194, "lat": 32.032105, "address": "南京市秦淮区南捕厅十五号五进" }, "geometry": { "type": "Point", "coordinates": [ 118.776552846659015, 32.027946672464985 ] } },
{ "type": "Feature", "properties": { "OBJECTID": 138, "name": "南京博物院-大巴下客处", "lng": 118.831458, "lat": 32.045451, "address": "南京市玄武区中山东路321号南京博物院内" }, "geometry": { "type": "Point", "coordinates": [ 118.819846472294472, 32.041469063130705 ] } },
{ "type": "Feature", "properties": { "OBJECTID": 139, "name": "国防教育馆", "lng": 118.760903, "lat": 32.057398, "address": "江苏省南京市鼓楼区虎踞路87号" }, "geometry": { "type": "Point", "coordinates": [ 118.74909685362428, 32.053690918234238 ] } },
{ "type": "Feature", "properties": { "OBJECTID": 140, "name": "金陵皮影", "lng": 118.792199, "lat": 32.018595, "address": "江苏省南京市秦淮区三条营78号13室-14室25室" }, "geometry": { "type": "Point", "coordinates": [ 118.780585085404013, 32.014383116611498 ] } },
{ "type": "Feature", "properties": { "OBJECTID": 141, "name": "南京绿博园消防主题馆", "lng": 118.718836, "lat": 32.032671, "address": "南京市建邺区新河口大街南京中国绿化博览园北1门西南侧约90米" }, "geometry": { "type": "Point", "coordinates": [ 118.707153853232839, 32.028781809074211 ] } },
{ "type": "Feature", "properties": { "OBJECTID": 142, "name": "梦江南汉服旗袍旅拍体验馆", "lng": 118.795448, "lat": 32.019212, "address": "剪子巷75号" }, "geometry": { "type": "Point", "coordinates": [ 118.783848117644027, 32.014966587411394 ] } },
{ "type": "Feature", "properties": { "OBJECTID": 143, "name": "小蜗牛童书馆", "lng": 118.71345, "lat": 32.188797, "address": "招商兰溪谷3期2栋206(华农菜场后面门店)" }, "geometry": { "type": "Point", "coordinates": [ 118.701759801772084, 32.184838679557309 ] } },
{ "type": "Feature", "properties": { "OBJECTID": 144, "name": "江宁织造厅", "lng": 118.800521, "lat": 32.04931, "address": "碑亭巷9号" }, "geometry": { "type": "Point", "coordinates": [ 118.788914152653945, 32.045030997619634 ] } },
{ "type": "Feature", "properties": { "OBJECTID": 145, "name": "布克沃姆绘本馆", "lng": 118.991489, "lat": 32.126999, "address": "南京市栖霞区茂民路南京万达茂御商业街11-122室" }, "geometry": { "type": "Point", "coordinates": [ 118.979728081985527, 32.123455767614111 ] } },
{ "type": "Feature", "properties": { "OBJECTID": 146, "name": "丹阳社区", "lng": 118.728139, "lat": 31.640985, "address": "秦城街37号" }, "geometry": { "type": "Point", "coordinates": [ 118.71643677202826, 31.637179906509779 ] } }
]
}
