{
"type": "FeatureCollection",
"name": "奶茶店",
"crs": { "type": "name", "properties": { "name": "urn:ogc:def:crs:OGC:1.3:CRS84" } },
"xy_coordinate_resolution": 1e-15,
"features": [
{ "type": "Feature", "properties": { "OBJECTID": 1, "name": "茶颜悦色(水游城店)", "lng": 118.792428, "lat": 32.029856, "address": "建康路1号鹏欣水游城内（建康路与中华路交叉口）" }, "geometry": { "type": "Point", "coordinates": [ 118.780809436394392, 32.025642784922383 ] } },
{ "type": "Feature", "properties": { "OBJECTID": 2, "name": "茶颜悦色(新街口店)", "lng": 118.787261, "lat": 32.04774, "address": "汉中路89号金鹰新街口店A座负1楼1009-a" }, "geometry": { "type": "Point", "coordinates": [ 118.775598929938539, 32.043594875075726 ] } },
{ "type": "Feature", "properties": { "OBJECTID": 3, "name": "蜜雪冰城(候家桥店)", "lng": 118.781136, "lat": 32.044358, "address": "莫愁路405号-4" }, "geometry": { "type": "Point", "coordinates": [ 118.769443863222023, 32.040312742575061 ] } },
{ "type": "Feature", "properties": { "OBJECTID": 4, "name": "CHAGEE霸王茶姬(江苏南京城墙解放门店)", "lng": 118.802756, "lat": 32.069083, "address": "解放门8号" }, "geometry": { "type": "Point", "coordinates": [ 118.791138878075515, 32.064796902906778 ] } },
{ "type": "Feature", "properties": { "OBJECTID": 5, "name": "蜜雪冰城(石鼓路店)", "lng": 118.789638, "lat": 32.044394, "address": "石鼓路5号" }, "geometry": { "type": "Point", "coordinates": [ 118.777991859093873, 32.040215379523822 ] } },
{ "type": "Feature", "properties": { "OBJECTID": 6, "name": "拾叁茶(明孝陵店)", "lng": 118.845658, "lat": 32.054274, "address": "钟山风景区石象路2-1号" }, "geometry": { "type": "Point", "coordinates": [ 118.833997589879601, 32.050575821999239 ] } },
{ "type": "Feature", "properties": { "OBJECTID": 7, "name": "CoCo都可(万安北路店)", "lng": 118.884959, "lat": 31.973347, "address": "文靖东路88号悦山名邸1幢105室" }, "geometry": { "type": "Point", "coordinates": [ 118.873361542203071, 31.969729707495084 ] } },
{ "type": "Feature", "properties": { "OBJECTID": 8, "name": "喜茶(南京景枫中心店)", "lng": 118.826829, "lat": 31.937611, "address": "双龙大道1698号景枫中心负一层（近金鹰入口处）" }, "geometry": { "type": "Point", "coordinates": [ 118.815227523852883, 31.933512826297846 ] } },
{ "type": "Feature", "properties": { "OBJECTID": 9, "name": "茶颜悦色(凤凰广场一楼店)", "lng": 118.789302, "lat": 32.07516, "address": "湖南路1号凤凰广场一层1-02" }, "geometry": { "type": "Point", "coordinates": [ 118.777630444704528, 32.070987070705598 ] } },
{ "type": "Feature", "properties": { "OBJECTID": 10, "name": "蜜雪冰城(后宰门店)", "lng": 118.828342, "lat": 32.051023, "address": "后宰门街21号110室" }, "geometry": { "type": "Point", "coordinates": [ 118.816732625939764, 32.046980392186697 ] } },
{ "type": "Feature", "properties": { "OBJECTID": 11, "name": "蜜雪冰城(大行宫店)", "lng": 118.802115, "lat": 32.045961, "address": "科巷66号科巷新市集1楼102号商铺" }, "geometry": { "type": "Point", "coordinates": [ 118.790516394865975, 32.041676326087149 ] } },
{ "type": "Feature", "properties": { "OBJECTID": 12, "name": "1点点(保利中心店)", "lng": 118.811594, "lat": 31.98701, "address": "汇康路保利若比邻商场1楼" }, "geometry": { "type": "Point", "coordinates": [ 118.800016622492095, 31.982729332940554 ] } },
{ "type": "Feature", "properties": { "OBJECTID": 13, "name": "茶颜悦色(环宇城店)", "lng": 118.75869, "lat": 32.050642, "address": "凤熙路8号中海环宇城购物中心一层L139号" }, "geometry": { "type": "Point", "coordinates": [ 118.746883870947443, 32.046961749277152 ] } },
{ "type": "Feature", "properties": { "OBJECTID": 14, "name": "茶颜悦色(舜禹大厦店)", "lng": 118.74095, "lat": 31.989079, "address": "白龙江东街19号舜禹大厦写字楼" }, "geometry": { "type": "Point", "coordinates": [ 118.729152718690671, 31.985450134611721 ] } },
{ "type": "Feature", "properties": { "OBJECTID": 15, "name": "雅克雅思(河海大学店)", "lng": 118.789854, "lat": 31.916487, "address": "开发区佛城西路11号江南青年城门面楚襄园4幢105" }, "geometry": { "type": "Point", "coordinates": [ 118.778228107423303, 31.912278331404512 ] } },
{ "type": "Feature", "properties": { "OBJECTID": 16, "name": "拾叁茶(喜玛拉雅店)", "lng": 118.809944, "lat": 31.972728, "address": "民智路4号" }, "geometry": { "type": "Point", "coordinates": [ 118.798353394263572, 31.968431001025834 ] } },
{ "type": "Feature", "properties": { "OBJECTID": 17, "name": "茶百道(建康路店)", "lng": 118.794486, "lat": 32.029501, "address": "建康路115号" }, "geometry": { "type": "Point", "coordinates": [ 118.782876823397714, 32.025265839864197 ] } },
{ "type": "Feature", "properties": { "OBJECTID": 18, "name": "拾叁茶(水平方店)", "lng": 118.793485, "lat": 32.029834, "address": "建康路3号水平方1-21号" }, "geometry": { "type": "Point", "coordinates": [ 118.781871226169471, 32.025609104415302 ] } },
{ "type": "Feature", "properties": { "OBJECTID": 19, "name": "蜜雪冰城(南京图书发行大厦店)", "lng": 118.793877, "lat": 32.047624, "address": "中山东路56号门面" }, "geometry": { "type": "Point", "coordinates": [ 118.782247223999562, 32.043394663868447 ] } },
{ "type": "Feature", "properties": { "OBJECTID": 20, "name": "蜜雪冰城(南京师范大学店)", "lng": 118.779565, "lat": 32.060689, "address": "汉口西路3-6号" }, "geometry": { "type": "Point", "coordinates": [ 118.76784733580044, 32.056670955677376 ] } },
{ "type": "Feature", "properties": { "OBJECTID": 21, "name": "蜜雪冰城(华润国际社区店)", "lng": 118.695213, "lat": 32.094812, "address": "万寿路151号10幢104室" }, "geometry": { "type": "Point", "coordinates": [ 118.683646676080315, 32.090606747077778 ] } },
{ "type": "Feature", "properties": { "OBJECTID": 22, "name": "茶颜悦色(景枫中心店)", "lng": 118.826674, "lat": 31.936719, "address": "双龙大道1698号景枫中心负一楼B124-2店铺" }, "geometry": { "type": "Point", "coordinates": [ 118.815073718306124, 31.93261802282758 ] } },
{ "type": "Feature", "properties": { "OBJECTID": 23, "name": "蜜雪冰城(景枫中心店)", "lng": 118.825318, "lat": 31.938614, "address": "秣陵街道双龙大道1680号凤凰港商贸城8幢101室一层部分" }, "geometry": { "type": "Point", "coordinates": [ 118.813719002202888, 31.934489000942669 ] } },
{ "type": "Feature", "properties": { "OBJECTID": 24, "name": "CHAGEE霸王茶姬(南京紫峰大厦店)", "lng": 118.789344, "lat": 32.067292, "address": "中山北路6号绿地中心紫峰购物广场商场部分第1层B05商铺" }, "geometry": { "type": "Point", "coordinates": [ 118.777675326379722, 32.063117312825327 ] } },
{ "type": "Feature", "properties": { "OBJECTID": 25, "name": "茶颜悦色(金茂览秀城店)", "lng": 118.789732, "lat": 32.079461, "address": "江苏省南京市鼓楼区中央路201号金茂览秀城F1" }, "geometry": { "type": "Point", "coordinates": [ 118.778062513622544, 32.075283274813046 ] } },
{ "type": "Feature", "properties": { "OBJECTID": 26, "name": "蜜雪冰城(南京农业大学滨江校区店)", "lng": 118.639205, "lat": 32.016318, "address": "江苏省南京市浦口区顶山街道滨江大道666号南京农业大学滨江校区校园商业综合体北1-11室" }, "geometry": { "type": "Point", "coordinates": [ 118.627623985930001, 32.012799142026957 ] } },
{ "type": "Feature", "properties": { "OBJECTID": 27, "name": "喜茶(南京夫子庙店)", "lng": 118.793622, "lat": 32.025657, "address": "瞻园奥特莱斯沿街瞻园路17号-10" }, "geometry": { "type": "Point", "coordinates": [ 118.782011642393655, 32.021430358140265 ] } },
{ "type": "Feature", "properties": { "OBJECTID": 28, "name": "喜茶(南京信息工程大学店)", "lng": 118.722456, "lat": 32.206476, "address": "宁六路219号南京信息工程大学中苑长望街A06-A07室" }, "geometry": { "type": "Point", "coordinates": [ 118.7107051106466, 32.202673427570176 ] } },
{ "type": "Feature", "properties": { "OBJECTID": 29, "name": "茶百道(玄武湖景区店)", "lng": 118.818381, "lat": 32.07157, "address": "阳光路玄武湖公园十里长堤60号商铺" }, "geometry": { "type": "Point", "coordinates": [ 118.806774274524969, 32.067368499210232 ] } },
{ "type": "Feature", "properties": { "OBJECTID": 30, "name": "喜茶(南京新百店)", "lng": 118.791913, "lat": 32.046637, "address": "江苏省南京市秦淮区中山南路一号南京新百壹层A-02000商铺" }, "geometry": { "type": "Point", "coordinates": [ 118.780275421263582, 32.042429500071862 ] } },
{ "type": "Feature", "properties": { "OBJECTID": 31, "name": "蜜雪冰城(中兴全球基地店)", "lng": 118.570304, "lat": 31.818235, "address": "景明大街与旺达路交叉口西南100米中兴食堂A区一楼" }, "geometry": { "type": "Point", "coordinates": [ 118.558854465529222, 31.814021527516473 ] } },
{ "type": "Feature", "properties": { "OBJECTID": 32, "name": "CoCo都可(迈皋桥地铁站店)", "lng": 118.816577, "lat": 32.107968, "address": "红山路高家村42号2幢3号（迈皋桥地铁站5号口对面，近红山路·迈皋桥公交站）" }, "geometry": { "type": "Point", "coordinates": [ 118.804989306616534, 32.103758478122856 ] } },
{ "type": "Feature", "properties": { "OBJECTID": 33, "name": "拾叁茶(1912店)", "lng": 118.802031, "lat": 32.050141, "address": "长江路288号1912街区内（鸭得堡和糖水铺中间）" }, "geometry": { "type": "Point", "coordinates": [ 118.790427594537505, 32.045856373315523 ] } },
{ "type": "Feature", "properties": { "OBJECTID": 34, "name": "喜茶(南京金茂览秀城店)", "lng": 118.789852, "lat": 32.078615, "address": "中央路201号金茂览秀城B1层B138铺位" }, "geometry": { "type": "Point", "coordinates": [ 118.778183053562444, 32.074435457349537 ] } },
{ "type": "Feature", "properties": { "OBJECTID": 35, "name": "蜜雪冰城(明发国际中心店)", "lng": 118.651219, "lat": 32.044812, "address": "江苏省南京市浦口区顶山街道明发国际中心" }, "geometry": { "type": "Point", "coordinates": [ 118.639648361644362, 32.041095650550773 ] } },
{ "type": "Feature", "properties": { "OBJECTID": 36, "name": "拾叁茶(科巷店)", "lng": 118.802132, "lat": 32.045556, "address": "五老村街道科巷24号(近科巷菜场)" }, "geometry": { "type": "Point", "coordinates": [ 118.790533886803942, 32.041271297044815 ] } },
{ "type": "Feature", "properties": { "OBJECTID": 37, "name": "蜜雪冰城(夫子庙西门路口牌匾旁)", "lng": 118.790871, "lat": 32.026707, "address": "瞻园路128–2号" }, "geometry": { "type": "Point", "coordinates": [ 118.779247279170633, 32.022512309636667 ] } },
{ "type": "Feature", "properties": { "OBJECTID": 38, "name": "蜜雪冰城(空港新城店)", "lng": 118.820915, "lat": 31.79704, "address": "禄口镇乾清路77-22号" }, "geometry": { "type": "Point", "coordinates": [ 118.809357275075527, 31.792821911947517 ] } },
{ "type": "Feature", "properties": { "OBJECTID": 39, "name": "蜜雪冰城(尧化门店)", "lng": 118.888172, "lat": 32.125012, "address": "尧化尧林仙居" }, "geometry": { "type": "Point", "coordinates": [ 118.876606367007568, 32.121387111336666 ] } },
{ "type": "Feature", "properties": { "OBJECTID": 40, "name": "CHAGEE霸王茶姬(南京城北万象汇店)", "lng": 118.839741, "lat": 32.125743, "address": "迈皋桥街道栖霞大道108号南京城北万象汇A馆B1063A号商铺" }, "geometry": { "type": "Point", "coordinates": [ 118.828114326857957, 32.121951181752493 ] } },
{ "type": "Feature", "properties": { "OBJECTID": 41, "name": "1点点(明瓦廊店)", "lng": 118.78976, "lat": 32.043584, "address": "明瓦廊129-1号" }, "geometry": { "type": "Point", "coordinates": [ 118.778115357602275, 32.039403784816507 ] } },
{ "type": "Feature", "properties": { "OBJECTID": 42, "name": "蜜雪冰城(南大仙林校区地铁站店)", "lng": 118.966801, "lat": 32.11472, "address": "仙林大道南大仙林校区地铁站内" }, "geometry": { "type": "Point", "coordinates": [ 118.955153517794528, 32.11107409924076 ] } },
{ "type": "Feature", "properties": { "OBJECTID": 43, "name": "蜜雪冰城(南京城北万象汇A馆店)", "lng": 118.839395, "lat": 32.12638, "address": "江苏省南京市栖霞区栖霞大道108号南京城北万象汇A馆F5" }, "geometry": { "type": "Point", "coordinates": [ 118.827769576711844, 32.122581366066711 ] } },
{ "type": "Feature", "properties": { "OBJECTID": 44, "name": "多可多奶茶", "lng": 118.788987, "lat": 32.066252, "address": "江苏省南京市鼓楼区湖南路街道中山北路1号" }, "geometry": { "type": "Point", "coordinates": [ 118.777317099968599, 32.062082117190329 ] } },
{ "type": "Feature", "properties": { "OBJECTID": 45, "name": "CHAGEE霸王茶姬(南京金茂览秀城店)", "lng": 118.789769, "lat": 32.078399, "address": "中央路201号L1层LD101、LD107铺位" }, "geometry": { "type": "Point", "coordinates": [ 118.778099630531585, 32.074220507708105 ] } },
{ "type": "Feature", "properties": { "OBJECTID": 46, "name": "蜜雪冰城(朝天宫地铁站店)", "lng": 118.779624, "lat": 32.038535, "address": "江苏省南京市秦淮区朝天宫街道莫愁路104号" }, "geometry": { "type": "Point", "coordinates": [ 118.767929512450408, 32.034516565912256 ] } },
{ "type": "Feature", "properties": { "OBJECTID": 47, "name": "茶百道(明发新城中心店)", "lng": 118.657058, "lat": 32.070512, "address": "明发新城中心2栋2单元40-41室" }, "geometry": { "type": "Point", "coordinates": [ 118.645483875553566, 32.066679220173583 ] } },
{ "type": "Feature", "properties": { "OBJECTID": 48, "name": "蜜雪冰城(南京城北万象汇A馆店)", "lng": 118.840259, "lat": 32.12644, "address": "江苏省南京市栖霞区栖霞大道108号南京城北万象汇A馆B1" }, "geometry": { "type": "Point", "coordinates": [ 118.828631143482994, 32.12265889460047 ] } },
{ "type": "Feature", "properties": { "OBJECTID": 49, "name": "益禾堂(南航将军路校区店)", "lng": 118.794181, "lat": 31.94798, "address": "将军大道29号南京航空航天大学三食堂内" }, "geometry": { "type": "Point", "coordinates": [ 118.782545484119538, 31.943720374006197 ] } },
{ "type": "Feature", "properties": { "OBJECTID": 50, "name": "蜜雪冰城(南京航空航天大学店)", "lng": 118.800927, "lat": 31.943934, "address": "江苏省南京市江宁区将军大道29号中部天桥一层111--2" }, "geometry": { "type": "Point", "coordinates": [ 118.789318510251377, 31.939625805073831 ] } },
{ "type": "Feature", "properties": { "OBJECTID": 51, "name": "煲珠公·老红糖珍珠奶茶(宜悦里店)", "lng": 118.779329, "lat": 32.08572, "address": "中央门街道新模范马路38号宜悦里IF-02b商铺" }, "geometry": { "type": "Point", "coordinates": [ 118.767604250853211, 32.081710663559868 ] } },
{ "type": "Feature", "properties": { "OBJECTID": 52, "name": "蜜雪冰城(美好商务中心店)", "lng": 118.800245, "lat": 32.043711, "address": "南京市秦淮区太平南路美好商务中心" }, "geometry": { "type": "Point", "coordinates": [ 118.788643452842123, 32.039433525523812 ] } },
{ "type": "Feature", "properties": { "OBJECTID": 53, "name": "茶颜悦色(明发国际中心店)", "lng": 118.651265, "lat": 32.044979, "address": "江淼路89号2栋101室-3号" }, "geometry": { "type": "Point", "coordinates": [ 118.639694321744344, 32.041261747995158 ] } },
{ "type": "Feature", "properties": { "OBJECTID": 54, "name": "蜜雪冰城(南京航空航天大学明故宫校区店)", "lng": 118.82853, "lat": 32.039444, "address": "江苏省南京市秦淮区明故宫校区教育超市内" }, "geometry": { "type": "Point", "coordinates": [ 118.816932745745177, 32.035405459896495 ] } },
{ "type": "Feature", "properties": { "OBJECTID": 55, "name": "茶百道(中国药科大学店)", "lng": 118.78512, "lat": 32.077333, "address": "童家巷38号" }, "geometry": { "type": "Point", "coordinates": [ 118.773426181467983, 32.073222675684526 ] } },
{ "type": "Feature", "properties": { "OBJECTID": 56, "name": "茶妍知己奶茶店", "lng": 118.600007, "lat": 32.186738, "address": "南京市浦口区余高公路浦口区大桥小学西侧" }, "geometry": { "type": "Point", "coordinates": [ 118.588448183127682, 32.183045228343303 ] } },
{ "type": "Feature", "properties": { "OBJECTID": 57, "name": "雅克雅思(绿地缤纷店)", "lng": 118.786558, "lat": 32.118196, "address": "幕府东路9号7幢110室" }, "geometry": { "type": "Point", "coordinates": [ 118.774899046174326, 32.114080079206872 ] } },
{ "type": "Feature", "properties": { "OBJECTID": 58, "name": "可斯克新加坡鲜奶茶(江宁街店)", "lng": 118.885314, "lat": 31.945446, "address": "南京市江宁区江宁街义乌小商品城" }, "geometry": { "type": "Point", "coordinates": [ 118.873716450043929, 31.941815986106466 ] } },
{ "type": "Feature", "properties": { "OBJECTID": 59, "name": "研盐小方奶茶(白下路店)", "lng": 118.805251, "lat": 32.033276, "address": "江苏省南京市秦淮区白下路279号" }, "geometry": { "type": "Point", "coordinates": [ 118.793672736991425, 32.028987486134803 ] } },
{ "type": "Feature", "properties": { "OBJECTID": 60, "name": "黑糖珍珠奶茶(瑞丽路店)", "lng": 118.862391, "lat": 32.120393, "address": "南京市栖霞区瑞丽路燕舞园" }, "geometry": { "type": "Point", "coordinates": [ 118.850729911780405, 32.116928508552029 ] } },
{ "type": "Feature", "properties": { "OBJECTID": 61, "name": "蜜雪冰城(金陵之夜店)", "lng": 118.896808, "lat": 31.392588, "address": "南京市古柏街道潜心东路金陵之夜街区金魔方02号" }, "geometry": { "type": "Point", "coordinates": [ 118.885348290439538, 31.388761027808528 ] } },
{ "type": "Feature", "properties": { "OBJECTID": 62, "name": "共和奶茶店", "lng": 119.197904, "lat": 31.63982, "address": "南京市溧水区共和路白马镇朱家边幼儿园东北侧约110米" }, "geometry": { "type": "Point", "coordinates": [ 119.186105191663998, 31.635741668289345 ] } },
{ "type": "Feature", "properties": { "OBJECTID": 63, "name": "若然相遇(新马路店)", "lng": 118.721646, "lat": 32.108094, "address": "新马路69号" }, "geometry": { "type": "Point", "coordinates": [ 118.709928057408291, 32.104265869859766 ] } },
{ "type": "Feature", "properties": { "OBJECTID": 64, "name": "沪上阿姨鲜果茶(玄武南京林业大学店)", "lng": 118.823962, "lat": 32.082434, "address": "锁金五村16号一层101号" }, "geometry": { "type": "Point", "coordinates": [ 118.812346445384179, 32.078316874772135 ] } },
{ "type": "Feature", "properties": { "OBJECTID": 65, "name": "江北新区黄康原奶茶店", "lng": 118.667604, "lat": 32.075734, "address": "南京市浦口区兴隆路老山药业公司" }, "geometry": { "type": "Point", "coordinates": [ 118.656057586120056, 32.07169863005246 ] } },
{ "type": "Feature", "properties": { "OBJECTID": 66, "name": "雀巢奶茶咖啡设备", "lng": 118.773172, "lat": 32.032968, "address": "南京市建邺区长虹路碧虹苑东南侧约80米" }, "geometry": { "type": "Point", "coordinates": [ 118.761446763336764, 32.029065963746049 ] } },
{ "type": "Feature", "properties": { "OBJECTID": 67, "name": "拾叁茶(明瓦廊店)", "lng": 118.790009, "lat": 32.043593, "address": "中山南路明瓦廊146-3号（大象米线对面）" }, "geometry": { "type": "Point", "coordinates": [ 118.778365586392766, 32.039409482779938 ] } },
{ "type": "Feature", "properties": { "OBJECTID": 68, "name": "蜜雪冰城(南京中医药大学店)", "lng": 118.956522, "lat": 32.108724, "address": "江苏省南京市栖霞区仙林大道138号校园生活服务网点仙林校区第二食堂东侧" }, "geometry": { "type": "Point", "coordinates": [ 118.944944527593236, 32.104913513792134 ] } },
{ "type": "Feature", "properties": { "OBJECTID": 69, "name": "茶颜悦色(新世界百货店)", "lng": 118.794775, "lat": 32.055938, "address": "珠江路88号101(含2-5层及夹层)室" }, "geometry": { "type": "Point", "coordinates": [ 118.78314035136485, 32.051699418961668 ] } },
{ "type": "Feature", "properties": { "OBJECTID": 70, "name": "CHAGEE霸王茶姬(鼓楼新城市虹桥中心店)", "lng": 118.769141, "lat": 32.082886, "address": "中山北路281号新城市虹桥中心第一层A108" }, "geometry": { "type": "Point", "coordinates": [ 118.757359925532526, 32.079057632627091 ] } },
{ "type": "Feature", "properties": { "OBJECTID": 71, "name": "CoCo都可(水晶广场店)", "lng": 118.874467, "lat": 32.168346, "address": "新港大道88号新港金融中心翠屏水晶广场5幢1楼123室" }, "geometry": { "type": "Point", "coordinates": [ 118.862812904645764, 32.164882613314013 ] } },
{ "type": "Feature", "properties": { "OBJECTID": 72, "name": "柚见轻饮", "lng": 118.84456, "lat": 31.842173, "address": "江宁区天禧公寓(金龙街)16号" }, "geometry": { "type": "Point", "coordinates": [ 118.832911627595706, 31.838404826527061 ] } },
{ "type": "Feature", "properties": { "OBJECTID": 73, "name": "谢家为早餐店", "lng": 118.799909, "lat": 32.057171, "address": "江苏省南京市玄武区新街口街道双井巷7号101室" }, "geometry": { "type": "Point", "coordinates": [ 118.788292203013228, 32.052894652891304 ] } },
{ "type": "Feature", "properties": { "OBJECTID": 74, "name": "CHAGEE霸王茶姬(秦淮张府园地铁站店)", "lng": 118.789833, "lat": 32.036578, "address": "中山南路344号地铁1号线张府园地铁站中天荟1F-105" }, "geometry": { "type": "Point", "coordinates": [ 118.778196071847006, 32.032397043334107 ] } },
{ "type": "Feature", "properties": { "OBJECTID": 75, "name": "蜜雪冰城(中粮鸿云坊店)", "lng": 118.888691, "lat": 31.99744, "address": "东山街道丰泽路118号鸿云坊28幢105室" }, "geometry": { "type": "Point", "coordinates": [ 118.877134726029382, 31.993777494183167 ] } },
{ "type": "Feature", "properties": { "OBJECTID": 76, "name": "茶颜悦色(金象城店)", "lng": 118.743678, "lat": 32.133374, "address": "江山路8号金象城购物中心1楼" }, "geometry": { "type": "Point", "coordinates": [ 118.731877573592556, 32.129789947268442 ] } },
{ "type": "Feature", "properties": { "OBJECTID": 77, "name": "永民手作(凤凰西街店)", "lng": 118.758675, "lat": 32.047281, "address": "凤凰西街134号103室" }, "geometry": { "type": "Point", "coordinates": [ 118.746872500199444, 32.043601068430348 ] } },
{ "type": "Feature", "properties": { "OBJECTID": 78, "name": "蜜雪冰城(健康路店)", "lng": 118.798707, "lat": 32.029843, "address": "健康路146号" }, "geometry": { "type": "Point", "coordinates": [ 118.787113832926437, 32.025574000920244 ] } },
{ "type": "Feature", "properties": { "OBJECTID": 79, "name": "CHAGEE霸王茶姬(南京雨花岱山颐悦街店)", "lng": 118.700101, "lat": 31.94928, "address": "岱山中路8号12室" }, "geometry": { "type": "Point", "coordinates": [ 118.688516230041117, 31.945081059318785 ] } },
{ "type": "Feature", "properties": { "OBJECTID": 80, "name": "蜜雪冰城(南京工业职业技术学院店)", "lng": 118.943562, "lat": 32.128085, "address": "羊山北路1号（南京工业职业技术大学仙林校区内）" }, "geometry": { "type": "Point", "coordinates": [ 118.93208405979351, 32.124079126035596 ] } },
{ "type": "Feature", "properties": { "OBJECTID": 81, "name": "初白手作·黑糖珍珠奶茶(延龄巷店)", "lng": 118.798387, "lat": 32.045086, "address": "延龄巷60-20号" }, "geometry": { "type": "Point", "coordinates": [ 118.786777805878174, 32.040818801592224 ] } },
{ "type": "Feature", "properties": { "OBJECTID": 82, "name": "拾叁茶(丰富路店)", "lng": 118.788317, "lat": 32.043925, "address": "丰富路199号102室" }, "geometry": { "type": "Point", "coordinates": [ 118.776664650990142, 32.039764685833006 ] } },
{ "type": "Feature", "properties": { "OBJECTID": 83, "name": "溧水(地铁站)", "lng": 119.05105, "lat": 31.669045, "address": "南京市溧水区秦淮大道溧水汽车客运站西南侧" }, "geometry": { "type": "Point", "coordinates": [ 119.039308144523744, 31.6645540530494 ] } },
{ "type": "Feature", "properties": { "OBJECTID": 84, "name": "竹筒奶茶", "lng": 118.794985, "lat": 32.024366, "address": "南京市秦淮区来燕路曙光天地(来燕路店)" }, "geometry": { "type": "Point", "coordinates": [ 118.783381193438274, 32.020125621179908 ] } },
{ "type": "Feature", "properties": { "OBJECTID": 85, "name": "CoCo都可(绿地缤纷店)", "lng": 118.785717, "lat": 32.117735, "address": "幕府东路9号绿地缤纷广场4号楼8号商铺" }, "geometry": { "type": "Point", "coordinates": [ 118.774053168299361, 32.113631881315065 ] } },
{ "type": "Feature", "properties": { "OBJECTID": 86, "name": "CHAGEE霸王茶姬(南京中山陵景区店)", "lng": 118.859528, "lat": 32.060047, "address": "陵园路中山陵商业街11号" }, "geometry": { "type": "Point", "coordinates": [ 118.847845016617768, 32.056542529481632 ] } },
{ "type": "Feature", "properties": { "OBJECTID": 87, "name": "礼拜天奶茶店", "lng": 118.76455, "lat": 32.15682, "address": "南京市浦口区水城路北外滩水城-第十九街区" }, "geometry": { "type": "Point", "coordinates": [ 118.752767957958085, 32.153087441650257 ] } },
{ "type": "Feature", "properties": { "OBJECTID": 88, "name": "雅克雅思(谷里街道店)", "lng": 118.703124, "lat": 31.874302, "address": "谷里社区振容路8-5号" }, "geometry": { "type": "Point", "coordinates": [ 118.69155507299341, 31.870128359170156 ] } },
{ "type": "Feature", "properties": { "OBJECTID": 89, "name": "CoCo都可(河海大学店)", "lng": 118.796809, "lat": 31.918998, "address": "将军大道62号天泰青城苑裙楼商业广场1幢105室" }, "geometry": { "type": "Point", "coordinates": [ 118.785211334276909, 31.914714885278581 ] } },
{ "type": "Feature", "properties": { "OBJECTID": 90, "name": "蜜雪冰城(土桥总店)", "lng": 119.069336, "lat": 31.939498, "address": "土桥集镇桂园南路147号" }, "geometry": { "type": "Point", "coordinates": [ 119.057437577303958, 31.93521938063482 ] } },
{ "type": "Feature", "properties": { "OBJECTID": 91, "name": "CoCo都可(南湖店)", "lng": 118.764059, "lat": 32.033386, "address": "南湖东路22号" }, "geometry": { "type": "Point", "coordinates": [ 118.752289529498086, 32.029636007635865 ] } },
{ "type": "Feature", "properties": { "OBJECTID": 92, "name": "上饮奶茶饮品", "lng": 118.747948, "lat": 32.078134, "address": "南京市鼓楼区淮滨路中海桃源里" }, "geometry": { "type": "Point", "coordinates": [ 118.736110622664469, 32.074528591195254 ] } },
{ "type": "Feature", "properties": { "OBJECTID": 93, "name": "茶颜悦色(印象汇店)", "lng": 118.792569, "lat": 32.044286, "address": "洪武路88号新街口印象汇商场S-L1-008铺位" }, "geometry": { "type": "Point", "coordinates": [ 118.780937049661787, 32.04007100756958 ] } },
{ "type": "Feature", "properties": { "OBJECTID": 94, "name": "茶颜悦色(时尚莱迪店)", "lng": 118.79305, "lat": 32.046263, "address": "洪武路时尚莱迪购物广场负2楼2M003-005室" }, "geometry": { "type": "Point", "coordinates": [ 118.781418056692061, 32.042042541839443 ] } },
{ "type": "Feature", "properties": { "OBJECTID": 95, "name": "雅克雅思(保利中心店)", "lng": 118.81169, "lat": 31.986338, "address": "汇康路99号（保利中心）" }, "geometry": { "type": "Point", "coordinates": [ 118.800112046086184, 31.982057622384922 ] } },
{ "type": "Feature", "properties": { "OBJECTID": 96, "name": "CoCo都可(武定门店)", "lng": 118.801013, "lat": 32.020567, "address": "长乐路麦当劳旁" }, "geometry": { "type": "Point", "coordinates": [ 118.789432319045176, 32.016285393112028 ] } },
{ "type": "Feature", "properties": { "OBJECTID": 97, "name": "茶颜悦色(虹悦城店)", "lng": 118.771827, "lat": 32.015213, "address": "应天大街619号虹悦城负1楼B1F-M06-1号" }, "geometry": { "type": "Point", "coordinates": [ 118.760103357636481, 32.011332833583502 ] } },
{ "type": "Feature", "properties": { "OBJECTID": 98, "name": "甜荟茶饮(炼油厂生活区店)", "lng": 118.937783, "lat": 32.158144, "address": "甘家巷石油三村门面房3-1号" }, "geometry": { "type": "Point", "coordinates": [ 118.926321002513404, 32.154075383917757 ] } },
{ "type": "Feature", "properties": { "OBJECTID": 99, "name": "茶颜悦色(河定桥店)", "lng": 118.825777, "lat": 31.958212, "address": "一楼（肯德基南门旁边）" }, "geometry": { "type": "Point", "coordinates": [ 118.814167889024432, 31.954097499456612 ] } },
{ "type": "Feature", "properties": { "OBJECTID": 100, "name": "蓝棒棒奶茶", "lng": 119.190868, "lat": 31.58172, "address": "南京市溧水区康居路金谷佳苑-东区" }, "geometry": { "type": "Point", "coordinates": [ 119.179066892616675, 31.577492614560711 ] } },
{ "type": "Feature", "properties": { "OBJECTID": 101, "name": "CoCo都可(江宁大润发店)", "lng": 118.824547, "lat": 31.958221, "address": "秦淮路11号欧尚一楼Coco奶茶店" }, "geometry": { "type": "Point", "coordinates": [ 118.812940504420723, 31.954085262281232 ] } },
{ "type": "Feature", "properties": { "OBJECTID": 102, "name": "永民手作(丁家庄店)", "lng": 118.862388, "lat": 32.120394, "address": "迈皋桥街道道丁家庄燕舞园8栋101门面房" }, "geometry": { "type": "Point", "coordinates": [ 118.850726909988666, 32.116929491922235 ] } },
{ "type": "Feature", "properties": { "OBJECTID": 103, "name": "茶百道(南京旅游职业学院店)", "lng": 118.741698, "lat": 32.04443, "address": "月华西路1号南京旅游职业学院-南旅院·橙堡2号铺位" }, "geometry": { "type": "Point", "coordinates": [ 118.729892242356883, 32.040816592564518 ] } },
{ "type": "Feature", "properties": { "OBJECTID": 104, "name": "茶百道(南京夫子庙景区店)", "lng": 118.795503, "lat": 32.025743, "address": "南京市夫子庙贡院街135号" }, "geometry": { "type": "Point", "coordinates": [ 118.783900565396024, 32.021497997616905 ] } },
{ "type": "Feature", "properties": { "OBJECTID": 105, "name": "喜茶(南京水游城店)", "lng": 118.792204, "lat": 32.029819, "address": "洪武路街道建康路1号鹏欣水游城B1层T09-T11-1(GODIVA旁)" }, "geometry": { "type": "Point", "coordinates": [ 118.780584429839109, 32.025608367920015 ] } },
{ "type": "Feature", "properties": { "OBJECTID": 106, "name": "阿嬷手作(南京景枫中心店)", "lng": 118.825726, "lat": 31.936765, "address": "双龙大道1698号景枫购物中心一楼F123-1号（3号门旁）" }, "geometry": { "type": "Point", "coordinates": [ 118.81412781524142, 31.932647124775489 ] } },
{ "type": "Feature", "properties": { "OBJECTID": 107, "name": "CoCo都可(地铁一店)", "lng": 118.791035, "lat": 32.048333, "address": "中山南路地铁一号线新街口站7号出口隔壁" }, "geometry": { "type": "Point", "coordinates": [ 118.779391386475609, 32.044136093235174 ] } },
{ "type": "Feature", "properties": { "OBJECTID": 108, "name": "永民手作(秦虹店)", "lng": 118.814093, "lat": 32.020418, "address": "江苏省南京市秦淮区秦虹路351-1号" }, "geometry": { "type": "Point", "coordinates": [ 118.80253090902545, 32.016169076356512 ] } },
{ "type": "Feature", "properties": { "OBJECTID": 109, "name": "CHAGEE霸王茶姬(仙林金鹰店)", "lng": 118.930502, "lat": 32.106384, "address": "学津路1号金鹰湖滨天地2期B座负1楼" }, "geometry": { "type": "Point", "coordinates": [ 118.919060255359796, 32.102257699015759 ] } },
{ "type": "Feature", "properties": { "OBJECTID": 110, "name": "CoCo都可(尧化门新店)", "lng": 118.888393, "lat": 32.125135, "address": "尧佳路17号17-5号" }, "geometry": { "type": "Point", "coordinates": [ 118.876828674770493, 32.121506623369712 ] } },
{ "type": "Feature", "properties": { "OBJECTID": 111, "name": "蜜雪冰城(南京工程学院店)", "lng": 118.888864, "lat": 31.933292, "address": "弘景大道1号南京工程学院北区综合楼" }, "geometry": { "type": "Point", "coordinates": [ 118.877296478855243, 31.929607099796634 ] } },
{ "type": "Feature", "properties": { "OBJECTID": 112, "name": "蜜雪冰城(南京信息工程大学店)", "lng": 118.723304, "lat": 32.207992, "address": "江苏省南京市浦口区龙山北路南信大中苑食堂" }, "geometry": { "type": "Point", "coordinates": [ 118.71154842181312, 32.204203672568056 ] } },
{ "type": "Feature", "properties": { "OBJECTID": 113, "name": "蜜雪冰城(南京林业大学店)", "lng": 118.824177, "lat": 32.082145, "address": "锁金五村16号" }, "geometry": { "type": "Point", "coordinates": [ 118.812560949715774, 32.07803136376058 ] } },
{ "type": "Feature", "properties": { "OBJECTID": 114, "name": "KOI Thé(金茂览秀城店)", "lng": 118.789969, "lat": 32.079142, "address": "金茂览秀城负一楼" }, "geometry": { "type": "Point", "coordinates": [ 118.778300667917946, 32.074961043115671 ] } },
{ "type": "Feature", "properties": { "OBJECTID": 115, "name": "茶颜悦色(南京城北万象汇A馆店)", "lng": 118.840708, "lat": 32.127259, "address": "江苏省南京市栖霞区栖霞大道108号南京城北万象汇A馆F1" }, "geometry": { "type": "Point", "coordinates": [ 118.829079187732532, 32.123487202096356 ] } },
{ "type": "Feature", "properties": { "OBJECTID": 116, "name": "蜜雪冰城(南京城北万象汇B馆店)", "lng": 118.841991, "lat": 32.126681, "address": "江苏省南京市栖霞区栖霞大道106号南京城北万象汇B馆F1" }, "geometry": { "type": "Point", "coordinates": [ 118.830358434271389, 32.12293460911657 ] } },
{ "type": "Feature", "properties": { "OBJECTID": 117, "name": "永民手作(下马坊店)", "lng": 118.855926, "lat": 32.043315, "address": "中山门大街99号-2下马坊地铁站1号口" }, "geometry": { "type": "Point", "coordinates": [ 118.844261200153056, 32.039774930136154 ] } },
{ "type": "Feature", "properties": { "OBJECTID": 118, "name": "时韵奶茶店(锁金村店)", "lng": 118.823765, "lat": 32.073288, "address": "板仓街与锁金巷交叉口西南60米" }, "geometry": { "type": "Point", "coordinates": [ 118.812149763247874, 32.069165408165496 ] } },
{ "type": "Feature", "properties": { "OBJECTID": 119, "name": "美食奶茶", "lng": 118.423017, "lat": 31.942839, "address": "南京市浦口区金桥路王湖新苑南侧约50米" }, "geometry": { "type": "Point", "coordinates": [ 118.41106948081196, 31.938547829971967 ] } },
{ "type": "Feature", "properties": { "OBJECTID": 120, "name": "CHAGEE霸王茶姬(世茂52+店)", "lng": 118.768982, "lat": 31.976848, "address": "雨花世茂52+一层L105-2/L106-1号商铺" }, "geometry": { "type": "Point", "coordinates": [ 118.757219238319806, 31.973000826912966 ] } },
{ "type": "Feature", "properties": { "OBJECTID": 121, "name": "蜜雪冰城(南京理工大学店)", "lng": 118.866073, "lat": 32.039158, "address": "罗汉巷18幢附1号101室" }, "geometry": { "type": "Point", "coordinates": [ 118.85441772718373, 32.035688612936575 ] } },
{ "type": "Feature", "properties": { "OBJECTID": 122, "name": "CHAGEE霸王茶姬(江苏南京雨花云密城店)", "lng": 118.757681, "lat": 31.975172, "address": "宁双路19号云密城5号楼1层101室" }, "geometry": { "type": "Point", "coordinates": [ 118.745873607010495, 31.971483864378072 ] } },
{ "type": "Feature", "properties": { "OBJECTID": 123, "name": "世界茶饮(51区店)", "lng": 118.739314, "lat": 31.990054, "address": "云龙山路98号天盛大厦2F-27" }, "geometry": { "type": "Point", "coordinates": [ 118.727521872906777, 31.986416957328078 ] } },
{ "type": "Feature", "properties": { "OBJECTID": 124, "name": "奶茶熊", "lng": 118.651643, "lat": 32.094323, "address": "南京市浦口区红庙路林景熙园1期北侧" }, "geometry": { "type": "Point", "coordinates": [ 118.640056913030335, 32.090605891016182 ] } },
{ "type": "Feature", "properties": { "OBJECTID": 125, "name": "茶而乐奶茶店(南京荣盛广场店)", "lng": 118.845183, "lat": 32.339893, "address": "雄州东路南京荣盛广场底商LG1" }, "geometry": { "type": "Point", "coordinates": [ 118.833499085677317, 32.336225418858334 ] } },
{ "type": "Feature", "properties": { "OBJECTID": 126, "name": "喜茶(金茂览秀城店)", "lng": 118.789996, "lat": 32.079074, "address": "江苏省南京市鼓楼区中央路201号金茂览秀城F1" }, "geometry": { "type": "Point", "coordinates": [ 118.778327796990382, 32.074892669184372 ] } },
{ "type": "Feature", "properties": { "OBJECTID": 127, "name": "奶茶屋", "lng": 118.63644, "lat": 32.091583, "address": "南京市浦口区浦口大道明发阅山悦府" }, "geometry": { "type": "Point", "coordinates": [ 118.624815207018187, 32.088103999052421 ] } },
{ "type": "Feature", "properties": { "OBJECTID": 128, "name": "靴子奶茶吧", "lng": 119.001539, "lat": 32.170087, "address": "经济技术开发区欢乐谷北路8号南京欢乐谷甜品王国" }, "geometry": { "type": "Point", "coordinates": [ 118.989742202740374, 32.166423439503419 ] } },
{ "type": "Feature", "properties": { "OBJECTID": 129, "name": "蜻蜓佳人饮品", "lng": 118.779772, "lat": 32.109757, "address": "南京市鼓楼区幕府西路33号金域中央15幢104室" }, "geometry": { "type": "Point", "coordinates": [ 118.768068204714766, 32.105750381077527 ] } },
{ "type": "Feature", "properties": { "OBJECTID": 130, "name": "奶茶熊", "lng": 118.656966, "lat": 32.095093, "address": "南京市浦口区龚家洼路金地浅山艺境南侧约40米" }, "geometry": { "type": "Point", "coordinates": [ 118.645397425320539, 32.09126952113067 ] } },
{ "type": "Feature", "properties": { "OBJECTID": 131, "name": "茶百道(金轮国际广场店)", "lng": 118.787394, "lat": 32.048604, "address": "汉中路8号金轮新天地B区B1层美食广场B231" }, "geometry": { "type": "Point", "coordinates": [ 118.775731684488179, 32.044456862788984 ] } },
{ "type": "Feature", "properties": { "OBJECTID": 132, "name": "上岛茶饮(南京工业大学江浦校区店)", "lng": 118.653543, "lat": 32.08465, "address": "江苏省南京市浦口区南京工业大学景星苑一楼食堂水果店旁边" }, "geometry": { "type": "Point", "coordinates": [ 118.641957552163305, 32.080891548351588 ] } },
{ "type": "Feature", "properties": { "OBJECTID": 133, "name": "蜻蜓佳人饮品", "lng": 118.774286, "lat": 32.075007, "address": "南京市鼓楼区祁家桥9号102室" }, "geometry": { "type": "Point", "coordinates": [ 118.762531451790025, 32.071085747170166 ] } },
{ "type": "Feature", "properties": { "OBJECTID": 134, "name": "南京市建邺区玉美丽奶茶店", "lng": 118.789729, "lat": 32.043595, "address": "江苏省南京市秦淮区朝天宫街道明瓦廊129号" }, "geometry": { "type": "Point", "coordinates": [ 118.778084190778742, 32.039415198220865 ] } },
{ "type": "Feature", "properties": { "OBJECTID": 135, "name": "蓝棒棒奶茶店", "lng": 118.645164, "lat": 31.792749, "address": "江苏省南京市江宁区江宁街道大元街36号" }, "geometry": { "type": "Point", "coordinates": [ 118.633609878496472, 31.78909291090428 ] } },
{ "type": "Feature", "properties": { "OBJECTID": 136, "name": "CoCo都可(虹桥中心店)", "lng": 118.768847, "lat": 32.083138, "address": "中山北路281号新城市·虹桥中心一层" }, "geometry": { "type": "Point", "coordinates": [ 118.757064547248604, 32.079314702368578 ] } },
{ "type": "Feature", "properties": { "OBJECTID": 137, "name": "永民手作(三牌楼店)", "lng": 118.773646, "lat": 32.083882, "address": "和会街1号" }, "geometry": { "type": "Point", "coordinates": [ 118.761888717926183, 32.079974639415212 ] } },
{ "type": "Feature", "properties": { "OBJECTID": 138, "name": "八八酷茶·吐司(文昌总店)", "lng": 118.801109, "lat": 32.04366, "address": "文昌巷11号（文昌烧烤旁）" }, "geometry": { "type": "Point", "coordinates": [ 118.789510107815985, 32.039378831963205 ] } },
{ "type": "Feature", "properties": { "OBJECTID": 139, "name": "卡哇依珍珠奶茶(嵩山路店)", "lng": 118.757226, "lat": 32.020301, "address": "嵩山路虹苑新寓4村1幢104室" }, "geometry": { "type": "Point", "coordinates": [ 118.745442383573234, 32.016635837682351 ] } },
{ "type": "Feature", "properties": { "OBJECTID": 140, "name": "悸动(视觉学院店)", "lng": 118.933842, "lat": 31.757855, "address": "柘塘街道柘宁东路128号伯爵山庄13幢03室(南京视觉艺术学院旁)" }, "geometry": { "type": "Point", "coordinates": [ 118.922432939234639, 31.753675445240884 ] } },
{ "type": "Feature", "properties": { "OBJECTID": 141, "name": "红枫奶茶", "lng": 118.968979, "lat": 32.160708, "address": "南京市栖霞区栖霞山风景名胜区" }, "geometry": { "type": "Point", "coordinates": [ 118.957308892937434, 32.157098598925749 ] } },
{ "type": "Feature", "properties": { "OBJECTID": 142, "name": "阿嬷手作(南京国金中心店)", "lng": 118.728481, "lat": 32.000365, "address": "江东中路345号南京ifc商场LG1-8" }, "geometry": { "type": "Point", "coordinates": [ 118.716743004917305, 31.996621537835566 ] } },
{ "type": "Feature", "properties": { "OBJECTID": 143, "name": "蜜雪冰城(人才公寓店)", "lng": 118.640884, "lat": 31.93815, "address": "三鸿路6号一层A4室" }, "geometry": { "type": "Point", "coordinates": [ 118.629282698683824, 31.934582494100272 ] } },
{ "type": "Feature", "properties": { "OBJECTID": 144, "name": "心悦奶茶", "lng": 118.845141, "lat": 31.838318, "address": "秣陵街道桥北大街106号(秣陵高中对面)" }, "geometry": { "type": "Point", "coordinates": [ 118.833490714067821, 31.83455978553912 ] } },
{ "type": "Feature", "properties": { "OBJECTID": 145, "name": "港究茶·冠军丝袜奶茶(江苏首店)", "lng": 118.727975, "lat": 32.002981, "address": "江东中路258号华采天地B1层" }, "geometry": { "type": "Point", "coordinates": [ 118.716241349811455, 31.999231513849892 ] } },
{ "type": "Feature", "properties": { "OBJECTID": 146, "name": "茶三尺·鲜奶茶(迈皋桥店)", "lng": 118.822668, "lat": 32.103818, "address": "迈皋桥街道华电路85-26号" }, "geometry": { "type": "Point", "coordinates": [ 118.811068992910577, 32.099688801207904 ] } },
{ "type": "Feature", "properties": { "OBJECTID": 147, "name": "遇苋酸奶鲜果茶(颐养中心店)", "lng": 119.021446, "lat": 31.727325, "address": "颐养中心实训楼8号商业用房" }, "geometry": { "type": "Point", "coordinates": [ 119.009698120347522, 31.723167572302543 ] } },
{ "type": "Feature", "properties": { "OBJECTID": 148, "name": "CHAGEE霸王茶姬(时尚莱迪店)", "lng": 118.792007, "lat": 32.046163, "address": "正洪街8号南京时尚莱迪购物广场负二层E区012商铺" }, "geometry": { "type": "Point", "coordinates": [ 118.780370383338862, 32.041954413598091 ] } },
{ "type": "Feature", "properties": { "OBJECTID": 149, "name": "茉晓白·手作珍珠奶茶(新街口店)", "lng": 118.789372, "lat": 32.044467, "address": "石鼓路7-1号（大洋百货对面）" }, "geometry": { "type": "Point", "coordinates": [ 118.777724442436039, 32.040291969199124 ] } },
{ "type": "Feature", "properties": { "OBJECTID": 150, "name": "琴雅轩珍珠奶茶", "lng": 118.937415, "lat": 31.704328, "address": "南京市江宁区金曹路与五圩路交叉路口北侧" }, "geometry": { "type": "Point", "coordinates": [ 118.925970806322368, 31.700162661385342 ] } },
{ "type": "Feature", "properties": { "OBJECTID": 151, "name": "沪上阿姨鲜果茶(金陵STYLE浪漫中心店)", "lng": 118.820797, "lat": 32.07215, "address": "龙蟠路108号" }, "geometry": { "type": "Point", "coordinates": [ 118.809187120327323, 32.067981281561991 ] } },
{ "type": "Feature", "properties": { "OBJECTID": 152, "name": "黑糖珍珠奶茶(升州路店)", "lng": 118.790039, "lat": 32.029768, "address": "江苏省南京市秦淮区洪武路街道升州路18-2号" }, "geometry": { "type": "Point", "coordinates": [ 118.77840907907806, 32.025584220023966 ] } },
{ "type": "Feature", "properties": { "OBJECTID": 153, "name": "CoCo都可(欢乐港外街一楼店)", "lng": 118.841313, "lat": 32.34169, "address": "雄州街道雄州西路22号欢乐港1层1060号商铺" }, "geometry": { "type": "Point", "coordinates": [ 118.829640864401057, 32.337947988666102 ] } },
{ "type": "Feature", "properties": { "OBJECTID": 154, "name": "井蓝奶茶店", "lng": 118.911067, "lat": 32.032028, "address": "南京市江宁区天兴路启迪城-朗园" }, "geometry": { "type": "Point", "coordinates": [ 118.899626482298927, 32.02799804830002 ] } },
{ "type": "Feature", "properties": { "OBJECTID": 155, "name": "沪上阿姨鲜果茶(江宁航空航天大学店)", "lng": 118.801851, "lat": 31.944664, "address": "将军大道29号中部天桥1层175" }, "geometry": { "type": "Point", "coordinates": [ 118.79024464812025, 31.940352537590343 ] } },
{ "type": "Feature", "properties": { "OBJECTID": 156, "name": "蜜雪冰城(农贸超市店)", "lng": 118.739554, "lat": 32.151618, "address": "江北新区百润路1号天润城第五街区农贸超市1楼A1-1" }, "geometry": { "type": "Point", "coordinates": [ 118.72775494144868, 32.148019431284112 ] } },
{ "type": "Feature", "properties": { "OBJECTID": 157, "name": "永民手作(马台街店)", "lng": 118.781107, "lat": 32.077362, "address": "马台街56-1号" }, "geometry": { "type": "Point", "coordinates": [ 118.769390732541055, 32.073318880555277 ] } },
{ "type": "Feature", "properties": { "OBJECTID": 158, "name": "CoCo都可(仙林大学城二店)", "lng": 118.922568, "lat": 32.099908, "address": "仙林大学城亚东商业街1-20号（近文轩路）" }, "geometry": { "type": "Point", "coordinates": [ 118.911126861951502, 32.095783133464671 ] } },
{ "type": "Feature", "properties": { "OBJECTID": 159, "name": "1点点(雨桥幸福城店)", "lng": 118.748127, "lat": 31.949293, "address": "俊才路2号雨桥幸福城一楼F106号" }, "geometry": { "type": "Point", "coordinates": [ 118.736302908448152, 31.945658215774849 ] } },
{ "type": "Feature", "properties": { "OBJECTID": 160, "name": "CHAGEE霸王茶姬(浦口泰冯路地铁站店)", "lng": 118.724826, "lat": 32.15988, "address": "江北新区沿江街道泰冯路59号1-D商业楼一号商铺1层11号店铺" }, "geometry": { "type": "Point", "coordinates": [ 118.713087145268048, 32.156114147372691 ] } },
{ "type": "Feature", "properties": { "OBJECTID": 161, "name": "1点点(绿地缤纷店)", "lng": 118.786471, "lat": 32.118208, "address": "幕府东路9号绿地缤纷7号楼1层4号" }, "geometry": { "type": "Point", "coordinates": [ 118.774811587898682, 32.114093411912513 ] } },
{ "type": "Feature", "properties": { "OBJECTID": 162, "name": "路飞堂·龙珠奶茶(雨花店)", "lng": 118.784046, "lat": 32.010639, "address": "江苏省南京市雨花台区雨花西路9号(中华门地铁站3号口步行410米)" }, "geometry": { "type": "Point", "coordinates": [ 118.772390202417441, 32.00654130391402 ] } },
{ "type": "Feature", "properties": { "OBJECTID": 163, "name": "茶百道(光华门店)", "lng": 118.82259, "lat": 32.028821, "address": "御道街光华荟一层临街商铺" }, "geometry": { "type": "Point", "coordinates": [ 118.811015245545718, 32.024678879730025 ] } },
{ "type": "Feature", "properties": { "OBJECTID": 164, "name": "CHAGEE霸王茶姬(安德门地铁站店)", "lng": 118.768489, "lat": 31.998119, "address": "赛虹桥街道南京地铁1号线安德门站2号出口01号" }, "geometry": { "type": "Point", "coordinates": [ 118.7567422056797, 31.994290559353356 ] } },
{ "type": "Feature", "properties": { "OBJECTID": 165, "name": "喜茶(高桥商场店)", "lng": 118.816697, "lat": 32.108269, "address": "南京市栖霞区红山路42-13号" }, "geometry": { "type": "Point", "coordinates": [ 118.805109504532524, 32.104060956708793 ] } },
{ "type": "Feature", "properties": { "OBJECTID": 166, "name": "蜜雪冰城(南京师范大学店)", "lng": 118.913875, "lat": 32.108216, "address": "文苑路1号南京师范大学西区食堂2楼4食堂" }, "geometry": { "type": "Point", "coordinates": [ 118.902426366772914, 32.104164689098091 ] } },
{ "type": "Feature", "properties": { "OBJECTID": 167, "name": "阿杰手作黑糖珍珠奶茶(团结路店)", "lng": 118.63121, "lat": 32.055793, "address": "江浦街道团结村2号(珠泉西路和团结路交汇处)" }, "geometry": { "type": "Point", "coordinates": [ 118.619588136367369, 32.05234875870115 ] } },
{ "type": "Feature", "properties": { "OBJECTID": 168, "name": "沪上阿姨鲜果茶(南京工程学院店)", "lng": 118.888023, "lat": 31.9331, "address": "日晖路南京工程学院北区活动中心内" }, "geometry": { "type": "Point", "coordinates": [ 118.8764509296212, 31.929428597696017 ] } },
{ "type": "Feature", "properties": { "OBJECTID": 169, "name": "CoCo都可(百水芊城店)", "lng": 118.912722, "lat": 32.052751, "address": "百水芊城春水坊25幢2号" }, "geometry": { "type": "Point", "coordinates": [ 118.901265769663141, 32.048699132424296 ] } },
{ "type": "Feature", "properties": { "OBJECTID": 170, "name": "蜜雪冰城(南京邮电大学店)", "lng": 118.939669, "lat": 32.115576, "address": "文苑路南京邮电大学仙林校区学生公寓楼下商业街" }, "geometry": { "type": "Point", "coordinates": [ 118.928203924552889, 32.111518671831163 ] } },
{ "type": "Feature", "properties": { "OBJECTID": 171, "name": "喜茶(南京雨桥幸福城店)", "lng": 118.74795, "lat": 31.949253, "address": "江苏省南京市雨花台区俊才路2号雨桥幸福城F118-2号" }, "geometry": { "type": "Point", "coordinates": [ 118.736125969791416, 31.94561856983152 ] } },
{ "type": "Feature", "properties": { "OBJECTID": 172, "name": "沪上阿姨鲜果茶(天润城地铁站店)", "lng": 118.740125, "lat": 32.155386, "address": "江北新区百润路7号天润城第九街区13幢107室" }, "geometry": { "type": "Point", "coordinates": [ 118.728321019514155, 32.151790461916214 ] } },
{ "type": "Feature", "properties": { "OBJECTID": 173, "name": "胖虎奶茶(石桥店)", "lng": 118.425418, "lat": 31.942256, "address": "新石路13号" }, "geometry": { "type": "Point", "coordinates": [ 118.413483953889354, 31.93792481582846 ] } },
{ "type": "Feature", "properties": { "OBJECTID": 174, "name": "蜜雪冰城(南京财经大学店)", "lng": 118.925786, "lat": 32.11097, "address": "南京财经大学西苑食堂(仙林校区)" }, "geometry": { "type": "Point", "coordinates": [ 118.914354676635625, 32.106841487232074 ] } },
{ "type": "Feature", "properties": { "OBJECTID": 175, "name": "木栖下·茶(银城广场店)", "lng": 118.745451, "lat": 32.060011, "address": "江东北路287号银城广场B座南侧小广场（宁波银行南侧）" }, "geometry": { "type": "Point", "coordinates": [ 118.733623242854563, 32.05640524615783 ] } },
{ "type": "Feature", "properties": { "OBJECTID": 176, "name": "蜜雪冰城(科技职业学院店)", "lng": 118.713811, "lat": 32.207243, "address": "欣乐路科技技术学院校内食堂" }, "geometry": { "type": "Point", "coordinates": [ 118.702118527613663, 32.2032939927279 ] } },
{ "type": "Feature", "properties": { "OBJECTID": 177, "name": "茶百道(富腾奥特莱斯商场店)", "lng": 118.85738, "lat": 31.955307, "address": "金箔路188号金宝市场东广场G26号" }, "geometry": { "type": "Point", "coordinates": [ 118.845700692489643, 31.951756723393132 ] } },
{ "type": "Feature", "properties": { "OBJECTID": 178, "name": "沪上阿姨鲜果茶(雨花幸福城店)", "lng": 118.747849, "lat": 31.949056, "address": "俊才路2号雨桥幸福城3层F306-1号" }, "geometry": { "type": "Point", "coordinates": [ 118.736025087492663, 31.945421735598941 ] } },
{ "type": "Feature", "properties": { "OBJECTID": 179, "name": "奶茶是岸", "lng": 119.047251, "lat": 31.629234, "address": "致远路无想水镇C19号（近东4号门）" }, "geometry": { "type": "Point", "coordinates": [ 119.035514904619163, 31.624738627441051 ] } },
{ "type": "Feature", "properties": { "OBJECTID": 180, "name": "聊猫奶茶", "lng": 118.781715, "lat": 32.076752, "address": "马台街42号" }, "geometry": { "type": "Point", "coordinates": [ 118.770002199832533, 32.072698202904959 ] } },
{ "type": "Feature", "properties": { "OBJECTID": 181, "name": "蜜雪冰城(固城街道店)", "lng": 118.979185, "lat": 31.311552, "address": "固城镇人民南路62号" }, "geometry": { "type": "Point", "coordinates": [ 118.967540682186041, 31.308003731350819 ] } },
{ "type": "Feature", "properties": { "OBJECTID": 182, "name": "蜻蜓佳人饮品(华荣大厦店)", "lng": 118.788977, "lat": 32.051923, "address": "南京市鼓楼区管家桥85号2105室" }, "geometry": { "type": "Point", "coordinates": [ 118.777319316033498, 32.047753047343967 ] } },
{ "type": "Feature", "properties": { "OBJECTID": 183, "name": "千予轻甜茶季", "lng": 118.610986, "lat": 32.068789, "address": "南京市浦口区南京审计大学泽园餐厅三楼" }, "geometry": { "type": "Point", "coordinates": [ 118.59939164667253, 32.065255016112189 ] } },
{ "type": "Feature", "properties": { "OBJECTID": 184, "name": "卡缇诺(玄武湖公园店)", "lng": 118.813472, "lat": 32.077402, "address": "环湖路水岸听风旁" }, "geometry": { "type": "Point", "coordinates": [ 118.80186670865352, 32.073150176015062 ] } },
{ "type": "Feature", "properties": { "OBJECTID": 185, "name": "奶茶熊", "lng": 118.651238, "lat": 32.091281, "address": "南京市浦口区龚家洼路林景熙园1期" }, "geometry": { "type": "Point", "coordinates": [ 118.639648557553798, 32.0875705164312 ] } },
{ "type": "Feature", "properties": { "OBJECTID": 186, "name": "冰恋茶颜", "lng": 118.914986, "lat": 31.645611, "address": "学府新天地" }, "geometry": { "type": "Point", "coordinates": [ 118.903595229809099, 31.641470654954876 ] } }
]
}
