{
"type": "FeatureCollection",
"name": "学校",
"crs": { "type": "name", "properties": { "name": "urn:ogc:def:crs:OGC:1.3:CRS84" } },
"xy_coordinate_resolution": 1e-15,
"features": [
{ "type": "Feature", "properties": { "OBJECTID": 1, "name": "南京警察学院(花园路校区)", "lng": 118.83175, "lat": 32.08969, "address": "南京市玄武区花园路11号" }, "geometry": { "type": "Point", "coordinates": [ 118.820118485131005, 32.085719446562592 ] } },
{ "type": "Feature", "properties": { "OBJECTID": 2, "name": "南京市励志高级中学", "lng": 118.834481, "lat": 32.32425, "address": "江苏省南京市六合区上马石路新都雅苑南侧约180米" }, "geometry": { "type": "Point", "coordinates": [ 118.822817134054617, 32.320364817333534 ] } },
{ "type": "Feature", "properties": { "OBJECTID": 3, "name": "六合区雄州初级中学", "lng": 118.883691, "lat": 32.335532, "address": "江苏省南京市六合区健康路1号" }, "geometry": { "type": "Point", "coordinates": [ 118.87205499533178, 32.33199009033391 ] } },
{ "type": "Feature", "properties": { "OBJECTID": 4, "name": "南京金陵小学(仙林湖校区)", "lng": 118.986971, "lat": 32.135836, "address": "江苏省南京市栖霞区守敬路6号" }, "geometry": { "type": "Point", "coordinates": [ 118.975223532138827, 32.132319759743631 ] } },
{ "type": "Feature", "properties": { "OBJECTID": 5, "name": "南京信息职业技术学院", "lng": 118.948207, "lat": 32.134965, "address": "江苏省南京市栖霞区文澜路99号" }, "geometry": { "type": "Point", "coordinates": [ 118.936701820930367, 32.131027720796489 ] } },
{ "type": "Feature", "properties": { "OBJECTID": 6, "name": "南京师范大学附属中学仙林学校(初中部)", "lng": 118.926178, "lat": 32.101159, "address": "江苏省南京市栖霞区文范路28号" }, "geometry": { "type": "Point", "coordinates": [ 118.914737483356745, 32.097025413122026 ] } },
{ "type": "Feature", "properties": { "OBJECTID": 7, "name": "南京时代双语学校", "lng": 118.845667, "lat": 32.135044, "address": "江苏省南京市栖霞区神农路18号" }, "geometry": { "type": "Point", "coordinates": [ 118.834026493979039, 32.131370249198277 ] } },
{ "type": "Feature", "properties": { "OBJECTID": 8, "name": "南京师范大学附属中学江宁分校(汤山中学)", "lng": 119.066657, "lat": 32.064609, "address": "江苏省南京市江宁区汤泉西路8号" }, "geometry": { "type": "Point", "coordinates": [ 119.054761550438172, 32.06031773200305 ] } },
{ "type": "Feature", "properties": { "OBJECTID": 9, "name": "南京理工大学继续教育学院(汤山校区)", "lng": 119.060622, "lat": 32.024821, "address": "江苏省南京市江宁区汤峰路96号" }, "geometry": { "type": "Point", "coordinates": [ 119.048801642548682, 32.020453792682765 ] } },
{ "type": "Feature", "properties": { "OBJECTID": 10, "name": "南京市科利华中学(棠城分校)", "lng": 118.841439, "lat": 32.330411, "address": "江苏省南京市六合区文晖路56号" }, "geometry": { "type": "Point", "coordinates": [ 118.829757804229644, 32.326668723589322 ] } },
{ "type": "Feature", "properties": { "OBJECTID": 11, "name": "六合区马集镇大圣小学", "lng": 118.799619, "lat": 32.572687, "address": "江苏省南京市六合区203县道西50米" }, "geometry": { "type": "Point", "coordinates": [ 118.787952864078306, 32.568416516293752 ] } },
{ "type": "Feature", "properties": { "OBJECTID": 12, "name": "江苏省六合实验小学", "lng": 118.83487, "lat": 32.339301, "address": "江苏省南京市六合区旭光路与龙池路交叉口西北150米" }, "geometry": { "type": "Point", "coordinates": [ 118.8232145179376, 32.335426977657022 ] } },
{ "type": "Feature", "properties": { "OBJECTID": 13, "name": "南京信息工程技工学校", "lng": 118.923754, "lat": 32.134115, "address": "江苏省南京市栖霞区仙林大学城广月路18号" }, "geometry": { "type": "Point", "coordinates": [ 118.912335405541967, 32.129999370830404 ] } },
{ "type": "Feature", "properties": { "OBJECTID": 14, "name": "金牛湖中心小学", "lng": 118.940056, "lat": 32.429265, "address": "江苏省南京市六合区八百大道175号" }, "geometry": { "type": "Point", "coordinates": [ 118.928533777778142, 32.425226013763535 ] } },
{ "type": "Feature", "properties": { "OBJECTID": 15, "name": "六合区灵岩小学", "lng": 118.88587, "lat": 32.333882, "address": "江苏省南京市六合区健康路56号" }, "geometry": { "type": "Point", "coordinates": [ 118.874244470105168, 32.330308889283565 ] } },
{ "type": "Feature", "properties": { "OBJECTID": 16, "name": "南京市六合区双语小学", "lng": 118.857936, "lat": 32.351109, "address": "南京市六合区白果路69号" }, "geometry": { "type": "Point", "coordinates": [ 118.8462436426788, 32.347632427477073 ] } },
{ "type": "Feature", "properties": { "OBJECTID": 17, "name": "南京师范大学附属六合实验学校", "lng": 118.860261, "lat": 32.328207, "address": "江苏省南京市六合区通马路" }, "geometry": { "type": "Point", "coordinates": [ 118.848550279507222, 32.324745113166877 ] } },
{ "type": "Feature", "properties": { "OBJECTID": 18, "name": "南京市玄武中等专业学校(仙鹤门校区)", "lng": 118.911403, "lat": 32.092765, "address": "江苏省南京市玄武区文枢西路99号" }, "geometry": { "type": "Point", "coordinates": [ 118.899933085339242, 32.08873713888952 ] } },
{ "type": "Feature", "properties": { "OBJECTID": 19, "name": "南外仙林分校华侨城小学", "lng": 119.0042, "lat": 32.160331, "address": "江苏省南京市栖霞区侨欣路9号" }, "geometry": { "type": "Point", "coordinates": [ 118.992414331417535, 32.156622810027891 ] } },
{ "type": "Feature", "properties": { "OBJECTID": 20, "name": "六合区马集镇初级中学", "lng": 118.824171, "lat": 32.525343, "address": "江苏省南京市六合区马鞍街道人民路202号" }, "geometry": { "type": "Point", "coordinates": [ 118.812533596988331, 32.521246458198455 ] } },
{ "type": "Feature", "properties": { "OBJECTID": 21, "name": "南京市金陵中学仙林分校中学部(龙潭校区)", "lng": 119.081431, "lat": 32.186064, "address": "江苏省南京市栖霞区龙岸路6号" }, "geometry": { "type": "Point", "coordinates": [ 119.06942254289072, 32.182039815108347 ] } },
{ "type": "Feature", "properties": { "OBJECTID": 22, "name": "北京东路小学(棠城分校)", "lng": 118.84169, "lat": 32.329744, "address": "江苏省南京市六合区文晖路56号" }, "geometry": { "type": "Point", "coordinates": [ 118.830007716711606, 32.326006581415129 ] } },
{ "type": "Feature", "properties": { "OBJECTID": 23, "name": "六合区长山小学", "lng": 118.898557, "lat": 32.40721, "address": "江苏省南京市六合区双桥路168号" }, "geometry": { "type": "Point", "coordinates": [ 118.887008223058459, 32.403421445485279 ] } },
{ "type": "Feature", "properties": { "OBJECTID": 24, "name": "六合区冶山镇东王小学", "lng": 118.886146, "lat": 32.560534, "address": "南京市六合区东王四马南路134号" }, "geometry": { "type": "Point", "coordinates": [ 118.874493439232978, 32.556924672710728 ] } },
{ "type": "Feature", "properties": { "OBJECTID": 25, "name": "南京市玄武中等专业学校(花园路)", "lng": 118.831879, "lat": 32.082346, "address": "江苏省南京市玄武区花园路6号" }, "geometry": { "type": "Point", "coordinates": [ 118.820244092071988, 32.078375455774093 ] } },
{ "type": "Feature", "properties": { "OBJECTID": 26, "name": "燕子矶中学(迈皋桥校区)", "lng": 118.832562, "lat": 32.120109, "address": "江苏省南京市栖霞区迈皋桥街道玉尚路15号" }, "geometry": { "type": "Point", "coordinates": [ 118.820953038657379, 32.116168444576459 ] } },
{ "type": "Feature", "properties": { "OBJECTID": 27, "name": "南京国际学校", "lng": 118.924351, "lat": 32.100202, "address": "南京市栖霞区学衡路8号(近文范路)" }, "geometry": { "type": "Point", "coordinates": [ 118.912910394456958, 32.096071165294063 ] } },
{ "type": "Feature", "properties": { "OBJECTID": 28, "name": "南京市栖霞区实验小学(尧辰路校区)", "lng": 118.889549, "lat": 32.132982, "address": "江苏省南京市栖霞区尧化门221号（尧辰路与尧学路交叉口西南方向136米）" }, "geometry": { "type": "Point", "coordinates": [ 118.877993353295679, 32.129337092792255 ] } },
{ "type": "Feature", "properties": { "OBJECTID": 29, "name": "南京市丁家庄小学", "lng": 118.864788, "lat": 32.123475, "address": "江苏省南京市栖霞区华银路27号" }, "geometry": { "type": "Point", "coordinates": [ 118.853131348294241, 32.120022467078002 ] } },
{ "type": "Feature", "properties": { "OBJECTID": 30, "name": "金牛湖初级中学", "lng": 118.943977, "lat": 32.419101, "address": "江苏省南京市六合区金塔路35号" }, "geometry": { "type": "Point", "coordinates": [ 118.932440777295142, 32.415112689960402 ] } },
{ "type": "Feature", "properties": { "OBJECTID": 31, "name": "六合区瓜埠镇红光小学", "lng": 118.9476, "lat": 32.279696, "address": "南京市六合区青芦线与双红路交叉路口往东北约70米" }, "geometry": { "type": "Point", "coordinates": [ 118.936072713764858, 32.275765716440759 ] } },
{ "type": "Feature", "properties": { "OBJECTID": 32, "name": "六合区东沟初级中学", "lng": 119.01008, "lat": 32.277527, "address": "江苏省南京市六合区大东路与环镇路交叉口西南方向140米" }, "geometry": { "type": "Point", "coordinates": [ 118.998290495257208, 32.273720099317593 ] } },
{ "type": "Feature", "properties": { "OBJECTID": 33, "name": "南京市栖霞中学(高中部)", "lng": 118.885153, "lat": 32.132402, "address": "江苏省南京市栖霞区新尧路28号" }, "geometry": { "type": "Point", "coordinates": [ 118.873572756113631, 32.128825116039955 ] } },
{ "type": "Feature", "properties": { "OBJECTID": 34, "name": "江苏省六合高级中学", "lng": 118.840691, "lat": 32.353225, "address": "南京市六合区长江路116号" }, "geometry": { "type": "Point", "coordinates": [ 118.829031004876285, 32.349473625003213 ] } },
{ "type": "Feature", "properties": { "OBJECTID": 35, "name": "南京贝赛思外籍人员子女学校", "lng": 118.926818, "lat": 32.086467, "address": "江苏省南京市栖霞区灵山北路18号兰德地理信息产业园南侧" }, "geometry": { "type": "Point", "coordinates": [ 118.915366626839187, 32.082326812711479 ] } },
{ "type": "Feature", "properties": { "OBJECTID": 36, "name": "南京市金陵小学(广志路校区)", "lng": 118.988277, "lat": 32.129986, "address": "江苏省南京市栖霞区广志路20号" }, "geometry": { "type": "Point", "coordinates": [ 118.976525115830881, 32.126463313511302 ] } },
{ "type": "Feature", "properties": { "OBJECTID": 37, "name": "南京市江宁高级中学(福宁路校区)", "lng": 118.975599, "lat": 32.094615, "address": "南京市江宁区福宁路深业青珑上府东北侧约220米" }, "geometry": { "type": "Point", "coordinates": [ 118.963877133188461, 32.09105603440662 ] } },
{ "type": "Feature", "properties": { "OBJECTID": 38, "name": "南京市晓庄小学(行知校区)", "lng": 118.83608, "lat": 32.12928, "address": "江苏省南京市栖霞区寅春西路99号" }, "geometry": { "type": "Point", "coordinates": [ 118.824465157571424, 32.125414354107491 ] } },
{ "type": "Feature", "properties": { "OBJECTID": 39, "name": "六合区程桥镇竹程小学", "lng": 118.731706, "lat": 32.44315, "address": "南京市六合区月独线与竹葛线交叉路口往东北约50米" }, "geometry": { "type": "Point", "coordinates": [ 118.719878268519494, 32.439485201924221 ] } },
{ "type": "Feature", "properties": { "OBJECTID": 40, "name": "南京市栖霞区(海门)实验初级中学(尧化校区)", "lng": 118.883992, "lat": 32.132423, "address": "江苏省南京市栖霞区新尧路28号" }, "geometry": { "type": "Point", "coordinates": [ 118.872405581973439, 32.128862400908062 ] } },
{ "type": "Feature", "properties": { "OBJECTID": 41, "name": "南京市华电中学(寅春路)", "lng": 118.852466, "lat": 32.129411, "address": "江苏省南京市栖霞区化纤新村寅春路99号" }, "geometry": { "type": "Point", "coordinates": [ 118.840812056432767, 32.125848340209117 ] } },
{ "type": "Feature", "properties": { "OBJECTID": 42, "name": "南京大学(仙林校区)-医学院", "lng": 118.961004, "lat": 32.125763, "address": "江苏南京市栖霞区仙林大道163号" }, "geometry": { "type": "Point", "coordinates": [ 118.949405659893273, 32.122033875362455 ] } },
{ "type": "Feature", "properties": { "OBJECTID": 43, "name": "南京信息职业技术学院-北门", "lng": 118.947935, "lat": 32.138739, "address": "南京市栖霞区文澜路99号南京信息职业技术学院" }, "geometry": { "type": "Point", "coordinates": [ 118.936431072320971, 32.134798209050629 ] } },
{ "type": "Feature", "properties": { "OBJECTID": 44, "name": "南京理工大学紫金学院-南门", "lng": 118.941311, "lat": 32.129364, "address": "南京市栖霞区文澜路89号" }, "geometry": { "type": "Point", "coordinates": [ 118.929845507017092, 32.125330282050619 ] } },
{ "type": "Feature", "properties": { "OBJECTID": 45, "name": "四合乡新街小学", "lng": 118.880824, "lat": 32.495859, "address": "江苏省南京市六合区黄四路与新街路交叉口往西" }, "geometry": { "type": "Point", "coordinates": [ 118.869187797822406, 32.492346432396808 ] } },
{ "type": "Feature", "properties": { "OBJECTID": 46, "name": "南京信息职业技术学院-南门", "lng": 118.948853, "lat": 32.131015, "address": "南京市栖霞区文澜路99号" }, "geometry": { "type": "Point", "coordinates": [ 118.937343325419548, 32.127086830827544 ] } },
{ "type": "Feature", "properties": { "OBJECTID": 47, "name": "南京威雅学校-北门", "lng": 119.063607, "lat": 32.038583, "address": "南京市江宁区戴家路与泉都大街交叉路口往西约180米" }, "geometry": { "type": "Point", "coordinates": [ 119.051757073755198, 32.034250849138616 ] } },
{ "type": "Feature", "properties": { "OBJECTID": 48, "name": "南京六合中等专业学校-南门", "lng": 118.848199, "lat": 32.3855, "address": "江苏省南京市六合区马鞍街道职校路1号" }, "geometry": { "type": "Point", "coordinates": [ 118.836527032231999, 32.381891748046698 ] } },
{ "type": "Feature", "properties": { "OBJECTID": 49, "name": "南京仙林外国语学校-东门", "lng": 118.94669, "lat": 32.105702, "address": "江苏省南京市栖霞区健翔路与学原路交叉口南150米" }, "geometry": { "type": "Point", "coordinates": [ 118.935177553696107, 32.101730753294802 ] } },
{ "type": "Feature", "properties": { "OBJECTID": 50, "name": "南京仙林外国语学校-南门", "lng": 118.944255, "lat": 32.103575, "address": "江苏省南京市栖霞区仙林大道136号" }, "geometry": { "type": "Point", "coordinates": [ 118.932755216425605, 32.099568114664486 ] } },
{ "type": "Feature", "properties": { "OBJECTID": 51, "name": "六合区玉带镇中心小学-西门", "lng": 118.915013, "lat": 32.227299, "address": "南京市六合区白玉路72号附近" }, "geometry": { "type": "Point", "coordinates": [ 118.903556105267711, 32.223254725383683 ] } },
{ "type": "Feature", "properties": { "OBJECTID": 52, "name": "南京金陵小学(仙林湖校区)-东门", "lng": 118.987745, "lat": 32.135915, "address": "江苏省南京市栖霞区守敬路南京金陵小学仙林湖校区" }, "geometry": { "type": "Point", "coordinates": [ 118.975995088669578, 32.132395971705108 ] } },
{ "type": "Feature", "properties": { "OBJECTID": 53, "name": "林营小学", "lng": 118.75471, "lat": 32.411444, "address": "江苏省南京市六合区25国道" }, "geometry": { "type": "Point", "coordinates": [ 118.742859426090533, 32.407839083351966 ] } },
{ "type": "Feature", "properties": { "OBJECTID": 54, "name": "南京市艺术小学(南京小红花艺术团)-北门", "lng": 118.997756, "lat": 32.124587, "address": "南京市栖霞区花蕾路与小红花路交叉路口往东南约50米" }, "geometry": { "type": "Point", "coordinates": [ 118.985985000093876, 32.120976619052641 ] } },
{ "type": "Feature", "properties": { "OBJECTID": 55, "name": "马鞍中学北", "lng": 118.836455, "lat": 32.414982, "address": "南京市六合区马玉线南京市六合区马鞍镇初级中学北侧约170米" }, "geometry": { "type": "Point", "coordinates": [ 118.824785694268712, 32.411136865213656 ] } },
{ "type": "Feature", "properties": { "OBJECTID": 56, "name": "南京工业职业技术大学-交通工程学院", "lng": 118.950405, "lat": 32.12596, "address": "江苏省南京市栖霞区羊山北路1号" }, "geometry": { "type": "Point", "coordinates": [ 118.938883429318707, 32.122054988667706 ] } },
{ "type": "Feature", "properties": { "OBJECTID": 57, "name": "南京理工大学紫金学院-实验楼A", "lng": 118.939294, "lat": 32.130834, "address": "江苏南京市栖霞区文澜路89号" }, "geometry": { "type": "Point", "coordinates": [ 118.927838629277147, 32.12677820906837 ] } },
{ "type": "Feature", "properties": { "OBJECTID": 58, "name": "六合区程桥初级中学-北门", "lng": 118.742769, "lat": 32.389693, "address": "江苏省南京市六合区编钟东路" }, "geometry": { "type": "Point", "coordinates": [ 118.730940933030297, 32.386126678701032 ] } },
{ "type": "Feature", "properties": { "OBJECTID": 59, "name": "南京市励志高级中学-西北门", "lng": 118.833902, "lat": 32.325938, "address": "南京市六合区" }, "geometry": { "type": "Point", "coordinates": [ 118.822240453211165, 32.322041260898814 ] } },
{ "type": "Feature", "properties": { "OBJECTID": 60, "name": "南师附中六合分校", "lng": 118.980421, "lat": 32.208489, "address": "江苏省南京市六合区龙袍街道六合茉莉花园长江渔村东北204米" }, "geometry": { "type": "Point", "coordinates": [ 118.96865842538682, 32.204975363309892 ] } },
{ "type": "Feature", "properties": { "OBJECTID": 61, "name": "中国水泥厂小学", "lng": 119.078223, "lat": 32.176225, "address": "江苏省南京市栖霞区龙其线35栋" }, "geometry": { "type": "Point", "coordinates": [ 119.066243643550351, 32.17214638785488 ] } },
{ "type": "Feature", "properties": { "OBJECTID": 62, "name": "南京工业职业技术大学(仙林校区)-知行楼", "lng": 118.949553, "lat": 32.129395, "address": "江苏省南京市栖霞区仙林大学城羊山北路1号南京工业职业技术大学(仙林校区)躬行楼旁" }, "geometry": { "type": "Point", "coordinates": [ 118.938038333014475, 32.125477418868115 ] } },
{ "type": "Feature", "properties": { "OBJECTID": 63, "name": "六合区雄州中心小学", "lng": 118.881367, "lat": 32.335865, "address": "南京市六合区雨花路六合区雄州初级中学西侧约120米" }, "geometry": { "type": "Point", "coordinates": [ 118.869719435661366, 32.332352672276912 ] } },
{ "type": "Feature", "properties": { "OBJECTID": 64, "name": "六合区灵岩小学-西门", "lng": 118.885517, "lat": 32.333011, "address": "南京市六合区山西路92号附近" }, "geometry": { "type": "Point", "coordinates": [ 118.873888921692838, 32.329442867397063 ] } },
{ "type": "Feature", "properties": { "OBJECTID": 65, "name": "南京市科利华中学(棠城分校)-东北门", "lng": 118.841099, "lat": 32.331849, "address": "南京市六合区王桥路与龙池路交叉口西南200米" }, "geometry": { "type": "Point", "coordinates": [ 118.829419655619859, 32.328100240542916 ] } },
{ "type": "Feature", "properties": { "OBJECTID": 66, "name": "南京市金陵中学仙林分校中学部(龙潭校区)-北门", "lng": 119.080541, "lat": 32.186369, "address": "江苏省南京市栖霞区龙岸路6号" }, "geometry": { "type": "Point", "coordinates": [ 119.068538160193611, 32.182329786556707 ] } },
{ "type": "Feature", "properties": { "OBJECTID": 67, "name": "南京信息职业技术学院-中认新能源技术学院", "lng": 118.947005, "lat": 32.133353, "address": "江苏省南京市栖霞区文澜路99号" }, "geometry": { "type": "Point", "coordinates": [ 118.93550749350706, 32.129397126583747 ] } },
{ "type": "Feature", "properties": { "OBJECTID": 68, "name": "六合区竹镇镇乌石中学-南门", "lng": 118.749096, "lat": 32.554592, "address": "江苏省南京市六合区府前路2-27号" }, "geometry": { "type": "Point", "coordinates": [ 118.737212546992382, 32.550988938836682 ] } },
{ "type": "Feature", "properties": { "OBJECTID": 69, "name": "南京信息职业技术学院-信息服务学院", "lng": 118.946704, "lat": 32.133968, "address": "江苏省南京市栖霞区文澜路99号" }, "geometry": { "type": "Point", "coordinates": [ 118.93520839989462, 32.130007788526022 ] } },
{ "type": "Feature", "properties": { "OBJECTID": 70, "name": "横梁中心小学-北2门", "lng": 118.947461, "lat": 32.328075, "address": "江苏省南京市六合区横小路18号" }, "geometry": { "type": "Point", "coordinates": [ 118.935908452988173, 32.324138954520777 ] } },
{ "type": "Feature", "properties": { "OBJECTID": 71, "name": "东沟镇平原小学-南门", "lng": 118.977253, "lat": 32.280743, "address": "南京市六合区金塘路与樱花路交叉路口往东南约130米" }, "geometry": { "type": "Point", "coordinates": [ 118.965520293132698, 32.277227612589208 ] } },
{ "type": "Feature", "properties": { "OBJECTID": 72, "name": "钱仓小学", "lng": 118.907838, "lat": 32.360135, "address": "江苏省南京市六合区X703与红星路交叉路口往东北约130米" }, "geometry": { "type": "Point", "coordinates": [ 118.896355362429091, 32.356195352224589 ] } },
{ "type": "Feature", "properties": { "OBJECTID": 73, "name": "南京技师学院体育场-南门", "lng": 118.925202, "lat": 32.127056, "address": "南京市栖霞区学海路29号南京技师学院附近" }, "geometry": { "type": "Point", "coordinates": [ 118.913781801112137, 32.122934881202667 ] } },
{ "type": "Feature", "properties": { "OBJECTID": 74, "name": "南京体育学院仙林校区教工宿舍", "lng": 118.981253, "lat": 32.125262, "address": "南京市栖霞区经天路南京体育学院(仙林校区)" }, "geometry": { "type": "Point", "coordinates": [ 118.969525984883916, 32.121745159943522 ] } },
{ "type": "Feature", "properties": { "OBJECTID": 75, "name": "南京信息职业技术学院体育馆-西门", "lng": 118.94766, "lat": 32.137683, "address": "南京市栖霞区文澜路99号南京信息职业技术学院内" }, "geometry": { "type": "Point", "coordinates": [ 118.93615805737501, 32.133737847927726 ] } },
{ "type": "Feature", "properties": { "OBJECTID": 76, "name": "南京师范大学附属中学江宁分校汤山小学-南门", "lng": 119.084186, "lat": 32.048882, "address": "南京市江宁区作厂路作厂馨苑-北苑南侧约80米" }, "geometry": { "type": "Point", "coordinates": [ 119.072187330766297, 32.044880005335081 ] } },
{ "type": "Feature", "properties": { "OBJECTID": 77, "name": "南京理工大学紫金学院教C-C西北1门", "lng": 118.940838, "lat": 32.131364, "address": "南京市栖霞区文澜路" }, "geometry": { "type": "Point", "coordinates": [ 118.929375304976801, 32.127325303750474 ] } },
{ "type": "Feature", "properties": { "OBJECTID": 78, "name": "六合区竹镇镇乌石希望小学-西门", "lng": 118.748262, "lat": 32.560822, "address": "南京市六合区竹镇镇乌石街道乌石希望小学附近" }, "geometry": { "type": "Point", "coordinates": [ 118.736378540644125, 32.557219535200566 ] } },
{ "type": "Feature", "properties": { "OBJECTID": 79, "name": "盛岗小学-西南门", "lng": 118.828884, "lat": 32.438897, "address": "江苏省南京市六合区盛岗村" }, "geometry": { "type": "Point", "coordinates": [ 118.817223695031743, 32.434894937110009 ] } },
{ "type": "Feature", "properties": { "OBJECTID": 80, "name": "六合区竹程初级中学-北门", "lng": 118.740648, "lat": 32.441912, "address": "江苏省南京市六合区唐练路" }, "geometry": { "type": "Point", "coordinates": [ 118.728786623488659, 32.438323845587327 ] } },
{ "type": "Feature", "properties": { "OBJECTID": 81, "name": "南京信息职业技术学院图书馆-东门", "lng": 118.948204, "lat": 32.134669, "address": "南京市栖霞区文体西路与文博路交叉口南150米" }, "geometry": { "type": "Point", "coordinates": [ 118.936698848510432, 32.130731613364425 ] } },
{ "type": "Feature", "properties": { "OBJECTID": 82, "name": "栖霞石埠桥小学-东1门", "lng": 118.954633, "lat": 32.168347, "address": "江苏省南京市栖霞区河埂110号" }, "geometry": { "type": "Point", "coordinates": [ 118.943058776610314, 32.164514503830766 ] } },
{ "type": "Feature", "properties": { "OBJECTID": 83, "name": "桦墅小学-西门", "lng": 119.019829, "lat": 32.106577, "address": "江苏省南京市栖霞区桦墅村跑马场公交站台旁边南" }, "geometry": { "type": "Point", "coordinates": [ 119.008060714556279, 32.102533513081717 ] } },
{ "type": "Feature", "properties": { "OBJECTID": 84, "name": "六合区程桥中心小学-北门", "lng": 118.745103, "lat": 32.391316, "address": "南京市六合区" }, "geometry": { "type": "Point", "coordinates": [ 118.733270135770312, 32.387753522248047 ] } },
{ "type": "Feature", "properties": { "OBJECTID": 85, "name": "南京市江北新区玉带实验学校-西2门", "lng": 118.915163, "lat": 32.22779, "address": "南京市六合区润玉路六合区玉带中心学校" }, "geometry": { "type": "Point", "coordinates": [ 118.903706952916011, 32.223744329726472 ] } },
{ "type": "Feature", "properties": { "OBJECTID": 86, "name": "南京市科利华中学(棠城分校)-西南1门", "lng": 118.841017, "lat": 32.32967, "address": "江苏省南京市六合区文晖路56号" }, "geometry": { "type": "Point", "coordinates": [ 118.829336549421839, 32.325919144061402 ] } },
{ "type": "Feature", "properties": { "OBJECTID": 87, "name": "南外仙林分校华侨城中学-南门", "lng": 119.005455, "lat": 32.158544, "address": "江苏省南京市栖霞区侨悦路9号" }, "geometry": { "type": "Point", "coordinates": [ 118.993671808447232, 32.15481295288113 ] } },
{ "type": "Feature", "properties": { "OBJECTID": 88, "name": "五交化建材商场", "lng": 119.088678, "lat": 32.208252, "address": "江苏省南京市栖霞区龙潭镇花园街75号" }, "geometry": { "type": "Point", "coordinates": [ 119.076625759424914, 32.20434476277125 ] } },
{ "type": "Feature", "properties": { "OBJECTID": 89, "name": "南京理工大学紫金学院-西南门", "lng": 118.938354, "lat": 32.13056, "address": "南京市栖霞区文澜路" }, "geometry": { "type": "Point", "coordinates": [ 118.926902791890782, 32.12649465023609 ] } },
{ "type": "Feature", "properties": { "OBJECTID": 90, "name": "南京审计大学金审学院-西北门", "lng": 118.921892, "lat": 32.095963, "address": "江苏省南京市栖霞区仙林大道100号" }, "geometry": { "type": "Point", "coordinates": [ 118.910447214541719, 32.091839409961956 ] } },
{ "type": "Feature", "properties": { "OBJECTID": 91, "name": "江苏省六合实验小学-东门", "lng": 118.835868, "lat": 32.339257, "address": "南京市六合区旭光路60号附近" }, "geometry": { "type": "Point", "coordinates": [ 118.824209539156811, 32.335403425923644 ] } },
{ "type": "Feature", "properties": { "OBJECTID": 92, "name": "南京市摄山星城小学-北1门", "lng": 119.011468, "lat": 32.148543, "address": "南京市栖霞区博源路与朝阳路交叉口东50米" }, "geometry": { "type": "Point", "coordinates": [ 118.999699234903858, 32.14469186073579 ] } },
{ "type": "Feature", "properties": { "OBJECTID": 93, "name": "南京信息职业技术学院-体育馆", "lng": 118.948053, "lat": 32.136873, "address": "南京市栖霞区文澜路99号南京信息职业技术学院内" }, "geometry": { "type": "Point", "coordinates": [ 118.936548655567066, 32.132933714972424 ] } },
{ "type": "Feature", "properties": { "OBJECTID": 94, "name": "冶山铁矿小学-南门", "lng": 118.971379, "lat": 32.525097, "address": "江苏省南京市六合区冶山镇冶山社区燕施路冶山铁矿中学" }, "geometry": { "type": "Point", "coordinates": [ 118.95965414065958, 32.521511213267004 ] } },
{ "type": "Feature", "properties": { "OBJECTID": 95, "name": "金牛湖中心小学-东门", "lng": 118.940863, "lat": 32.428863, "address": "江苏省南京市六合区八百大道175号" }, "geometry": { "type": "Point", "coordinates": [ 118.929336976796165, 32.424833179359638 ] } },
{ "type": "Feature", "properties": { "OBJECTID": 96, "name": "南师附中仙林学校·攀岩运动训练基地", "lng": 118.930865, "lat": 32.126118, "address": "仙林大学城南师附中仙林学校初中部(文澜路校区)体育馆" }, "geometry": { "type": "Point", "coordinates": [ 118.919437126493065, 32.12200124138451 ] } },
{ "type": "Feature", "properties": { "OBJECTID": 97, "name": "南京市六合区马鞍中心小学-东南门", "lng": 118.818186, "lat": 32.542846, "address": "南京市六合区马鞍街道人民路1号" }, "geometry": { "type": "Point", "coordinates": [ 118.806540677392746, 32.5386530849349 ] } },
{ "type": "Feature", "properties": { "OBJECTID": 98, "name": "南京理工大学紫金学院篮球场(文澜路)-东南门", "lng": 118.941235, "lat": 32.133064, "address": "江苏省南京市栖霞区天秤路" }, "geometry": { "type": "Point", "coordinates": [ 118.929770490431736, 32.129030344227971 ] } },
{ "type": "Feature", "properties": { "OBJECTID": 99, "name": "南京理工大学紫金学院实验楼-C东南门", "lng": 118.939597, "lat": 32.12985, "address": "南京市栖霞区文澜路89号" }, "geometry": { "type": "Point", "coordinates": [ 118.928140019231563, 32.125797136800074 ] } },
{ "type": "Feature", "properties": { "OBJECTID": 100, "name": "南京市长江小学-东北门", "lng": 119.206091, "lat": 32.206812, "address": "江苏省南京市栖霞区新华路" }, "geometry": { "type": "Point", "coordinates": [ 119.194187198669525, 32.202983609170126 ] } },
{ "type": "Feature", "properties": { "OBJECTID": 101, "name": "六合县马集镇龙山小学-东南门", "lng": 118.857511, "lat": 32.502959, "address": "江苏省南京市六合区黄四路马鞍中心小学龙山教学点附近" }, "geometry": { "type": "Point", "coordinates": [ 118.845817236321295, 32.499465725318366 ] } },
{ "type": "Feature", "properties": { "OBJECTID": 102, "name": "南京信息职业技术学院行政楼-北门", "lng": 118.949286, "lat": 32.131806, "address": "江苏省南京市栖霞区文澜路99号附近" }, "geometry": { "type": "Point", "coordinates": [ 118.93777357619085, 32.127884838577678 ] } }
]
}
