{
"type": "FeatureCollection",
"name": "烧烤店",
"crs": { "type": "name", "properties": { "name": "urn:ogc:def:crs:OGC:1.3:CRS84" } },
"xy_coordinate_resolution": 1e-15,
"features": [
{ "type": "Feature", "properties": { "OBJECTID": 1, "name": "老五烧烤(盘金华府总店)", "lng": 118.739933, "lat": 32.208081, "address": "新华西路458号盘金华府45幢113室" }, "geometry": { "type": "Point", "coordinates": [ 118.72809876448683, 32.204485834988596 ] } },
{ "type": "Feature", "properties": { "OBJECTID": 2, "name": "绿地三只羊羊肉串(上元大街店)", "lng": 118.85457, "lat": 31.959916, "address": "东山街道上元大街556和558号（小厨娘对面）" }, "geometry": { "type": "Point", "coordinates": [ 118.842892414385616, 31.956334426076317 ] } },
{ "type": "Feature", "properties": { "OBJECTID": 3, "name": "百串烧烤城(鼓楼店)", "lng": 118.776676, "lat": 32.081042, "address": "马台街将军庙40号1-2商铺" }, "geometry": { "type": "Point", "coordinates": [ 118.764934855498154, 32.077078918208692 ] } },
{ "type": "Feature", "properties": { "OBJECTID": 4, "name": "锦州烧烤王(三牌楼总店)", "lng": 118.774637, "lat": 32.083012, "address": "三牌楼大街13号101室" }, "geometry": { "type": "Point", "coordinates": [ 118.762884903434013, 32.079086462765211 ] } },
{ "type": "Feature", "properties": { "OBJECTID": 5, "name": "柏楠烧烤(南京总店)", "lng": 118.774223, "lat": 32.083704, "address": "中央门街道三牌楼大街43号（近中山北路）" }, "geometry": { "type": "Point", "coordinates": [ 118.762468820918542, 32.079786169627077 ] } },
{ "type": "Feature", "properties": { "OBJECTID": 6, "name": "春丽家·齐齐哈尔烤肉(南京首店)", "lng": 118.829943, "lat": 32.030584, "address": "光华东街2号" }, "geometry": { "type": "Point", "coordinates": [ 118.818350351970423, 32.026572551627446 ] } },
{ "type": "Feature", "properties": { "OBJECTID": 7, "name": "黑仔烧烤(金燕路店)", "lng": 118.76865, "lat": 32.111491, "address": "金燕路金陵村95号-1" }, "geometry": { "type": "Point", "coordinates": [ 118.756887376644187, 32.107683275454079 ] } },
{ "type": "Feature", "properties": { "OBJECTID": 8, "name": "窝窝里·庭院烤肉·围炉煮茶·猫咖(围炉煮茶猫咖)", "lng": 118.676146, "lat": 32.222322, "address": "永渡路王家渡组11-1号" }, "geometry": { "type": "Point", "coordinates": [ 118.664613390656697, 32.218191597655739 ] } },
{ "type": "Feature", "properties": { "OBJECTID": 9, "name": "王记烧烤(南京金山路店)", "lng": 118.850661, "lat": 31.941614, "address": "东山街道金山路13号万欣花园1-101" }, "geometry": { "type": "Point", "coordinates": [ 118.838994978294792, 31.93797402097076 ] } },
{ "type": "Feature", "properties": { "OBJECTID": 10, "name": "俏皮嘴烧烤(武成路店)", "lng": 118.896413, "lat": 31.96715, "address": "武成路66号2幢103室" }, "geometry": { "type": "Point", "coordinates": [ 118.88487706699226, 31.963339539300922 ] } },
{ "type": "Feature", "properties": { "OBJECTID": 11, "name": "喜宝不限量烤肉(南京江宁义乌店)", "lng": 118.885195, "lat": 31.945321, "address": "江苏省南京市江宁区淳化街道天元东路490号" }, "geometry": { "type": "Point", "coordinates": [ 118.873596889236808, 31.941692692517613 ] } },
{ "type": "Feature", "properties": { "OBJECTID": 12, "name": "小夫妻木炭全羊馆(同鑫楼店)", "lng": 118.840868, "lat": 32.108483, "address": "墨香路32号-2" }, "geometry": { "type": "Point", "coordinates": [ 118.829225631052708, 32.104706654079962 ] } },
{ "type": "Feature", "properties": { "OBJECTID": 13, "name": "阿毛烧烤", "lng": 118.838592, "lat": 32.143259, "address": "燕子矶街道徐家村街19号1栋107室、207室" }, "geometry": { "type": "Point", "coordinates": [ 118.826968349718271, 32.139447472157386 ] } },
{ "type": "Feature", "properties": { "OBJECTID": 14, "name": "享趣户外烧烤BBQ·公司团建·班级聚会·露营基地(景业百果园店)", "lng": 118.992621, "lat": 31.946328, "address": "南京市淳化街道青龙社区景业百果园" }, "geometry": { "type": "Point", "coordinates": [ 118.980840939280512, 31.942726330443911 ] } },
{ "type": "Feature", "properties": { "OBJECTID": 15, "name": "东北烧烤城(天元东路店)", "lng": 118.880785, "lat": 31.945643, "address": "天元东路849号（义乌斜对面" }, "geometry": { "type": "Point", "coordinates": [ 118.869164245795815, 31.942071988037174 ] } },
{ "type": "Feature", "properties": { "OBJECTID": 16, "name": "鸣人烧烤(文春路店)", "lng": 118.846597, "lat": 32.328558, "address": "文春路38号-1、-2" }, "geometry": { "type": "Point", "coordinates": [ 118.834901579452037, 32.324913666865449 ] } },
{ "type": "Feature", "properties": { "OBJECTID": 17, "name": "宝记烧烤(丁家庄店)", "lng": 118.859598, "lat": 32.118905, "address": "凤霞路10号悦拾光一楼（星巴克对面）" }, "geometry": { "type": "Point", "coordinates": [ 118.847934562516954, 32.115420313644016 ] } },
{ "type": "Feature", "properties": { "OBJECTID": 18, "name": "醉楠帝·小龙虾·老北京铜锅(南京首店)", "lng": 118.840942, "lat": 32.108663, "address": "墨香路32-4号" }, "geometry": { "type": "Point", "coordinates": [ 118.829299588972432, 32.104888223757854 ] } },
{ "type": "Feature", "properties": { "OBJECTID": 19, "name": "花味烤肉·拌饭(江宁同曦店)", "lng": 118.828693, "lat": 31.949952, "address": "双龙大道1355号同曦假日百货B1层" }, "geometry": { "type": "Point", "coordinates": [ 118.817078531347235, 31.945889247186802 ] } },
{ "type": "Feature", "properties": { "OBJECTID": 20, "name": "火龙烧烤(南京总店)", "lng": 119.031962, "lat": 31.658818, "address": "永阳街道红花巷10号大西门(珍珠大酒店以西)" }, "geometry": { "type": "Point", "coordinates": [ 119.020262677635273, 31.654467047385602 ] } },
{ "type": "Feature", "properties": { "OBJECTID": 21, "name": "三姐烧烤(复地店)", "lng": 118.804238, "lat": 32.10689, "address": "小市街道燕亭路2号6幢114" }, "geometry": { "type": "Point", "coordinates": [ 118.792639992390448, 32.102614800830679 ] } },
{ "type": "Feature", "properties": { "OBJECTID": 22, "name": "古彭7只羊·徐州烧烤(玄武墨香路店)", "lng": 118.841095, "lat": 32.109444, "address": "墨香路32-12号（奉君口腔旁）" }, "geometry": { "type": "Point", "coordinates": [ 118.829452872596931, 32.105672658711931 ] } },
{ "type": "Feature", "properties": { "OBJECTID": 23, "name": "金陵大勇烧烤·小龙虾·海鲜大咖(竹山路店)", "lng": 118.850229, "lat": 31.941574, "address": "高新园金山路29号金陵大勇烧烤（距龙湾天街200m）" }, "geometry": { "type": "Point", "coordinates": [ 118.838563731430625, 31.937927215289562 ] } },
{ "type": "Feature", "properties": { "OBJECTID": 24, "name": "小王烧烤摊(长江新村店)", "lng": 118.784366, "lat": 32.087582, "address": "中央门街道南昌路长江新村16号-2（金陵老卤面店内）" }, "geometry": { "type": "Point", "coordinates": [ 118.772670492574889, 32.083486941847241 ] } },
{ "type": "Feature", "properties": { "OBJECTID": 25, "name": "大嘴烧烤(莱茵达路店)", "lng": 118.863578, "lat": 31.943996, "address": "东山街道莱茵达路248号(科学园小学斜对面)" }, "geometry": { "type": "Point", "coordinates": [ 118.851905751333646, 31.940490521980134 ] } },
{ "type": "Feature", "properties": { "OBJECTID": 26, "name": "疯狂烤翅·烧烤小酒馆(仙林学则路店)", "lng": 118.921568, "lat": 32.101502, "address": "文范路9号5幢202（泸溪河楼上）" }, "geometry": { "type": "Point", "coordinates": [ 118.910127682192652, 32.097382578049007 ] } },
{ "type": "Feature", "properties": { "OBJECTID": 27, "name": "仙四季山庄·烤全羊·土家菜", "lng": 118.990857, "lat": 32.045363, "address": "麒麟门大道龙尚村内" }, "geometry": { "type": "Point", "coordinates": [ 118.979088747591675, 32.041802723400302 ] } },
{ "type": "Feature", "properties": { "OBJECTID": 28, "name": "东北油边王烧烤(浦口首店)", "lng": 118.710928, "lat": 32.140833, "address": "泰西路左所雅苑3号21幢101" }, "geometry": { "type": "Point", "coordinates": [ 118.699295889242507, 32.136834555233222 ] } },
{ "type": "Feature", "properties": { "OBJECTID": 29, "name": "西木音乐烤吧(江宁高新区人才公寓店)", "lng": 118.912623, "lat": 31.905571, "address": "龙湖冠寓" }, "geometry": { "type": "Point", "coordinates": [ 118.901203025540653, 31.901493231135689 ] } },
{ "type": "Feature", "properties": { "OBJECTID": 30, "name": "花味烤肉·拌饭(钟鼎名悦店)", "lng": 118.86647, "lat": 32.041875, "address": "江苏省南京市玄武区中山门大街297号钟鼎名悦广场负一层120-1号" }, "geometry": { "type": "Point", "coordinates": [ 118.854812525612644, 32.038406242924218 ] } },
{ "type": "Feature", "properties": { "OBJECTID": 31, "name": "光头烧烤(新港店)", "lng": 118.890199, "lat": 32.151181, "address": "江苏省南京市栖霞区南京经济技术开发区恒通大道50-8号1-1号" }, "geometry": { "type": "Point", "coordinates": [ 118.878639871420049, 32.147527158576771 ] } },
{ "type": "Feature", "properties": { "OBJECTID": 32, "name": "蚝门海鲜·烧烤大排档(高新路店)", "lng": 118.7171, "lat": 32.178932, "address": "高新路23号力朋广场" }, "geometry": { "type": "Point", "coordinates": [ 118.705391606783721, 32.175035952140206 ] } },
{ "type": "Feature", "properties": { "OBJECTID": 33, "name": "三伏羊海鲜烧烤(康利华府店)", "lng": 119.046745, "lat": 31.648524, "address": "永阳街道致远路68号(致远路以西" }, "geometry": { "type": "Point", "coordinates": [ 119.035023343126994, 31.644033728400256 ] } },
{ "type": "Feature", "properties": { "OBJECTID": 34, "name": "李大炮小龙虾·烧烤(紫御东方店)", "lng": 118.837702, "lat": 32.144639, "address": "门坡街19号1幢1单元108" }, "geometry": { "type": "Point", "coordinates": [ 118.826080241924032, 32.140809349141641 ] } },
{ "type": "Feature", "properties": { "OBJECTID": 35, "name": "东北烧烤大排档(北沿路店)", "lng": 118.840625, "lat": 31.961577, "address": "北沿路(格林豪泰酒店)146号" }, "geometry": { "type": "Point", "coordinates": [ 118.828975822156536, 31.957757254156924 ] } },
{ "type": "Feature", "properties": { "OBJECTID": 36, "name": "新疆阿达西烧烤(东望商务中心店)", "lng": 118.966054, "lat": 32.091826, "address": "招商正荣·东望府" }, "geometry": { "type": "Point", "coordinates": [ 118.954392431062317, 32.088159159371699 ] } },
{ "type": "Feature", "properties": { "OBJECTID": 37, "name": "新疆玉石买买提烧烤(万达店)", "lng": 118.851977, "lat": 31.95597, "address": "鼓山路8号" }, "geometry": { "type": "Point", "coordinates": [ 118.840302401551753, 31.952351821415142 ] } },
{ "type": "Feature", "properties": { "OBJECTID": 38, "name": "新疆和田玉买买提烧烤(花港·幸福城牡丹园店)", "lng": 118.909528, "lat": 32.039168, "address": "南京市花岗保障房片区五组团花港路11号11-18A号" }, "geometry": { "type": "Point", "coordinates": [ 118.89807483584562, 32.035159390821462 ] } },
{ "type": "Feature", "properties": { "OBJECTID": 39, "name": "威哥地下烧烤城(义乌小商品城店)", "lng": 118.885845, "lat": 31.944113, "address": "义乌路108号" }, "geometry": { "type": "Point", "coordinates": [ 118.87425119036179, 31.940475126192208 ] } },
{ "type": "Feature", "properties": { "OBJECTID": 40, "name": "胡三烤吧(大厂玉桥店)", "lng": 118.758705, "lat": 32.23806, "address": "大厂街道毕洼路234号(东淮西川对面)" }, "geometry": { "type": "Point", "coordinates": [ 118.746897093486965, 32.234417441618412 ] } },
{ "type": "Feature", "properties": { "OBJECTID": 41, "name": "火龙烧烤(城南康利店)", "lng": 119.045586, "lat": 31.648538, "address": "永阳街道秀园路康利华府19-14号(广成北门至水岸康城大门的那条路)" }, "geometry": { "type": "Point", "coordinates": [ 119.033867801524735, 31.644051069695667 ] } },
{ "type": "Feature", "properties": { "OBJECTID": 42, "name": "零点烧烤(湖山路店)", "lng": 118.875904, "lat": 31.95179, "address": "湖山路366号" }, "geometry": { "type": "Point", "coordinates": [ 118.864259096214866, 31.948266163458552 ] } },
{ "type": "Feature", "properties": { "OBJECTID": 43, "name": "彭城老拾烧烤(江宁金盛路店)", "lng": 118.83467, "lat": 31.975267, "address": "江苏省南京市江宁区金盛路510号" }, "geometry": { "type": "Point", "coordinates": [ 118.823044894208167, 31.971330922550887 ] } },
{ "type": "Feature", "properties": { "OBJECTID": 44, "name": "小红炉烤肉酒馆(南京首店)", "lng": 118.846883, "lat": 32.043526, "address": "童卫路5号曼度年华6号楼一层107必胜客旁" }, "geometry": { "type": "Point", "coordinates": [ 118.83523141278387, 32.039850517867379 ] } },
{ "type": "Feature", "properties": { "OBJECTID": 45, "name": "烧烤(大田悦生活店)", "lng": 118.865479, "lat": 31.972613, "address": "宏运大道4597号大田悦生活" }, "geometry": { "type": "Point", "coordinates": [ 118.853809755729202, 31.969121724276786 ] } },
{ "type": "Feature", "properties": { "OBJECTID": 46, "name": "桥下蚝油串(金陵小区店)", "lng": 118.766186, "lat": 32.111628, "address": "金陵村100号" }, "geometry": { "type": "Point", "coordinates": [ 118.754411974012243, 32.107860690104282 ] } },
{ "type": "Feature", "properties": { "OBJECTID": 47, "name": "江湖烧烤·龙虾大排档(尧化门店)", "lng": 118.885288, "lat": 32.124809, "address": "新尧路5-4号" }, "geometry": { "type": "Point", "coordinates": [ 118.873706305755945, 32.121227924501639 ] } },
{ "type": "Feature", "properties": { "OBJECTID": 48, "name": "老山羊烧烤龙虾(南邮广场店)", "lng": 118.931515, "lat": 32.126635, "address": "仙林街道学海路28号南邮广场美食街(吉米家自助烤肉旁边)" }, "geometry": { "type": "Point", "coordinates": [ 118.920085851074447, 32.122520835429555 ] } },
{ "type": "Feature", "properties": { "OBJECTID": 49, "name": "一青烧烤(宏运大道店)", "lng": 118.867869, "lat": 31.972276, "address": "宏运大道4588号南祥星际小区自南向北第9间门面房" }, "geometry": { "type": "Point", "coordinates": [ 118.856203917363317, 31.968788012233162 ] } },
{ "type": "Feature", "properties": { "OBJECTID": 50, "name": "雷炭长龙虾烧烤(启迪城智园店)", "lng": 118.914385, "lat": 32.034761, "address": "江苏省南京市江宁区天宇路10号" }, "geometry": { "type": "Point", "coordinates": [ 118.902952798696035, 32.030690254851507 ] } },
{ "type": "Feature", "properties": { "OBJECTID": 51, "name": "牛阿勇碳烤羊腿(大厂总店)", "lng": 118.759875, "lat": 32.244675, "address": "葛关路688号" }, "geometry": { "type": "Point", "coordinates": [ 118.748074556956226, 32.241020744212605 ] } },
{ "type": "Feature", "properties": { "OBJECTID": 52, "name": "神焱烧烤(莉湖花园店)", "lng": 118.844186, "lat": 32.32584, "address": "莉湖路76号" }, "geometry": { "type": "Point", "coordinates": [ 118.832495147715946, 32.322150503151001 ] } },
{ "type": "Feature", "properties": { "OBJECTID": 53, "name": "新疆阿西木烧烤(水岸新都花苑店)", "lng": 119.050997, "lat": 31.64914, "address": "秀园路1号水岸新都花苑34幢107室" }, "geometry": { "type": "Point", "coordinates": [ 119.039260245496337, 31.644649093819595 ] } },
{ "type": "Feature", "properties": { "OBJECTID": 54, "name": "牧羊王烧烤(马群新街店)", "lng": 118.902533, "lat": 32.057772, "address": "马群新街41号" }, "geometry": { "type": "Point", "coordinates": [ 118.891027685177733, 32.053874683758266 ] } },
{ "type": "Feature", "properties": { "OBJECTID": 55, "name": "小芋儿地锅·烧烤·徐州菜(江宁殷巷店)", "lng": 118.839935, "lat": 31.916266, "address": "殷巷农贸市场二期(紫云瑞华商业街)3幢109-2室" }, "geometry": { "type": "Point", "coordinates": [ 118.828319894778573, 31.912429658074526 ] } },
{ "type": "Feature", "properties": { "OBJECTID": 56, "name": "海镙号海鲜烧烤排档龙虾(潭园西路店)", "lng": 118.852967, "lat": 31.944876, "address": "南京市江宁区-东山街道潭园西路126号30-2幢2楼" }, "geometry": { "type": "Point", "coordinates": [ 118.841295323228664, 31.941270345138591 ] } },
{ "type": "Feature", "properties": { "OBJECTID": 57, "name": "阿奎烧烤(万景佳苑店)", "lng": 119.029221, "lat": 31.687564, "address": "柘塘街道开发区小洋人青云服务区(红光路与群力大道交叉口)" }, "geometry": { "type": "Point", "coordinates": [ 119.017497889967927, 31.683254823052408 ] } },
{ "type": "Feature", "properties": { "OBJECTID": 58, "name": "二家烧烤(天元吉第城店)", "lng": 118.881045, "lat": 31.951676, "address": "天元吉第城依靠旁" }, "geometry": { "type": "Point", "coordinates": [ 118.869422653311759, 31.948102743202593 ] } },
{ "type": "Feature", "properties": { "OBJECTID": 59, "name": "久明烧烤(康馨公寓店)", "lng": 118.889378, "lat": 31.961941, "address": "校前路康馨公寓03幢101室" }, "geometry": { "type": "Point", "coordinates": [ 118.877799580700938, 31.958251205280593 ] } },
{ "type": "Feature", "properties": { "OBJECTID": 60, "name": "徐州烧烤(亚东商业广场店)", "lng": 118.922294, "lat": 32.100322, "address": "南京市栖霞区文范路8号亚东商业广场F1" }, "geometry": { "type": "Point", "coordinates": [ 118.910853093798721, 32.096198523427226 ] } },
{ "type": "Feature", "properties": { "OBJECTID": 61, "name": "新疆阿曼烧烤", "lng": 119.003489, "lat": 32.156702, "address": "栖霞区南京经济技术开发区侨悦路8号F-108" }, "geometry": { "type": "Point", "coordinates": [ 118.991706804844881, 32.153006697946154 ] } },
{ "type": "Feature", "properties": { "OBJECTID": 62, "name": "新疆麦麦提烧烤(汤山店)", "lng": 119.067579, "lat": 32.063061, "address": "汤泉东路18号" }, "geometry": { "type": "Point", "coordinates": [ 119.055678445291605, 32.058783130086056 ] } },
{ "type": "Feature", "properties": { "OBJECTID": 63, "name": "新疆乃比烧烤(紫艺华府店)", "lng": 118.740614, "lat": 32.250242, "address": "松杨路紫艺华府384号" }, "geometry": { "type": "Point", "coordinates": [ 118.728807925168795, 32.246664634479259 ] } },
{ "type": "Feature", "properties": { "OBJECTID": 64, "name": "卧龙湖小镇烧烤公园", "lng": 119.064406, "lat": 31.731496, "address": "S340与蒲丰线交叉口正南方向1300米左右" }, "geometry": { "type": "Point", "coordinates": [ 119.052558773244968, 31.727108740378505 ] } },
{ "type": "Feature", "properties": { "OBJECTID": 65, "name": "郑记北方烧烤(迈化路店)", "lng": 118.84814, "lat": 32.127163, "address": "进取村154号" }, "geometry": { "type": "Point", "coordinates": [ 118.836492747550864, 32.123531258716504 ] } },
{ "type": "Feature", "properties": { "OBJECTID": 66, "name": "阿依古丽烧烤店", "lng": 118.887805, "lat": 32.000104, "address": "东山街道中粮鸿云(丰泽路)" }, "geometry": { "type": "Point", "coordinates": [ 118.876245597253472, 31.996456818957345 ] } },
{ "type": "Feature", "properties": { "OBJECTID": 67, "name": "77烧鸡公(花港幸福城海棠园店)", "lng": 118.903758, "lat": 32.035405, "address": "花港幸福花园城海棠园" }, "geometry": { "type": "Point", "coordinates": [ 118.892282320376964, 32.031487434282376 ] } },
{ "type": "Feature", "properties": { "OBJECTID": 68, "name": "玩啤火星·烧烤酒馆(江宁义乌店)", "lng": 118.880069, "lat": 31.945372, "address": "江苏省南京市江宁区天元东路831号" }, "geometry": { "type": "Point", "coordinates": [ 118.868445034077936, 31.941808973591062 ] } },
{ "type": "Feature", "properties": { "OBJECTID": 69, "name": "德伦大叔·齐齐哈尔烤肉(花港店)", "lng": 118.90372, "lat": 32.035478, "address": "花港路2-30号" }, "geometry": { "type": "Point", "coordinates": [ 118.892244059176278, 32.031561078087087 ] } },
{ "type": "Feature", "properties": { "OBJECTID": 70, "name": "东北烧烤(北苑东路店)", "lng": 118.832092, "lat": 32.105411, "address": "华飞路恒大翡翠华庭B区7幢1-2层5号商铺" }, "geometry": { "type": "Point", "coordinates": [ 118.820472083543905, 32.101454349736457 ] } },
{ "type": "Feature", "properties": { "OBJECTID": 71, "name": "阿彬烧烤羊腿(杨村一路店)", "lng": 118.763721, "lat": 32.251141, "address": "大厂街道葛塘杨村一路162号（凤凰里潮汕牛肉火锅龙虾旁）" }, "geometry": { "type": "Point", "coordinates": [ 118.751936372241815, 32.247436654123113 ] } },
{ "type": "Feature", "properties": { "OBJECTID": 72, "name": "麻辣一哥海鲜烧烤(朝天街店)", "lng": 118.841342, "lat": 32.343282, "address": "朝天街105号" }, "geometry": { "type": "Point", "coordinates": [ 118.829671219118808, 32.339541003850883 ] } },
{ "type": "Feature", "properties": { "OBJECTID": 73, "name": "缘起", "lng": 119.033045, "lat": 32.115915, "address": "西岗街道桦墅村周冲67号" }, "geometry": { "type": "Point", "coordinates": [ 119.021294567007985, 32.111626686632206 ] } },
{ "type": "Feature", "properties": { "OBJECTID": 74, "name": "老储烧烤(龙池花园店)", "lng": 118.815119, "lat": 32.324835, "address": "集群路46号" }, "geometry": { "type": "Point", "coordinates": [ 118.803493182925976, 32.32063226944512 ] } },
{ "type": "Feature", "properties": { "OBJECTID": 75, "name": "光头烧烤(金王府店)", "lng": 118.828832, "lat": 31.954406, "address": "秣陵街道上元大街88号金王府商业街6幢101室" }, "geometry": { "type": "Point", "coordinates": [ 118.817215880854022, 31.950346661261534 ] } },
{ "type": "Feature", "properties": { "OBJECTID": 76, "name": "新疆阿西木烧烤(分龙岗路店)", "lng": 119.042947, "lat": 31.661608, "address": "分龙岗路工业新村北侧约50米" }, "geometry": { "type": "Point", "coordinates": [ 119.031234979678942, 31.657134246790132 ] } },
{ "type": "Feature", "properties": { "OBJECTID": 77, "name": "新疆尼亚孜烧烤(文晖路店)", "lng": 118.843891, "lat": 32.326823, "address": "文晖路19号" }, "geometry": { "type": "Point", "coordinates": [ 118.832201325211173, 32.323128027770856 ] } },
{ "type": "Feature", "properties": { "OBJECTID": 78, "name": "沪江烧烤(冠城店)", "lng": 118.827216, "lat": 32.318621, "address": "龙池街道龙湾路好又多超市旁" }, "geometry": { "type": "Point", "coordinates": [ 118.815570898304529, 32.31459289940733 ] } },
{ "type": "Feature", "properties": { "OBJECTID": 79, "name": "大口九(东新南路店)", "lng": 118.861868, "lat": 31.954942, "address": "江苏省南京市江宁区东新南路399-9号" }, "geometry": { "type": "Point", "coordinates": [ 118.850189528573665, 31.951428876416223 ] } },
{ "type": "Feature", "properties": { "OBJECTID": 80, "name": "小老弟火炉烧烤", "lng": 118.882189, "lat": 32.130126, "address": "金尧路11-16号一楼门面房" }, "geometry": { "type": "Point", "coordinates": [ 118.870592969953606, 32.126588388278932 ] } },
{ "type": "Feature", "properties": { "OBJECTID": 81, "name": "龙虾烧烤", "lng": 119.023494, "lat": 31.688038, "address": "南京市溧水区花前线华为大酒店西北侧约140米" }, "geometry": { "type": "Point", "coordinates": [ 119.011765955421723, 31.683838409655753 ] } },
{ "type": "Feature", "properties": { "OBJECTID": 82, "name": "李记面馆烧烤(北沿路店)", "lng": 118.84057, "lat": 31.961858, "address": "北沿路146号" }, "geometry": { "type": "Point", "coordinates": [ 118.828921033392163, 31.958037234616484 ] } },
{ "type": "Feature", "properties": { "OBJECTID": 83, "name": "图门烧烤城(秣陵商业城店)", "lng": 118.846799, "lat": 31.843687, "address": "凤仪街商业城1楼115号" }, "geometry": { "type": "Point", "coordinates": [ 118.835145814692353, 31.839960487199214 ] } },
{ "type": "Feature", "properties": { "OBJECTID": 84, "name": "两只羊烧烤大排档(二店)", "lng": 118.828647, "lat": 31.971691, "address": "江苏省南京市江宁区学院路12号" }, "geometry": { "type": "Point", "coordinates": [ 118.817035892983071, 31.967633768218459 ] } },
{ "type": "Feature", "properties": { "OBJECTID": 85, "name": "宝记外传(大厂店)", "lng": 118.752457, "lat": 32.236257, "address": "园西路280号" }, "geometry": { "type": "Point", "coordinates": [ 118.74063537741975, 32.232668503166089 ] } },
{ "type": "Feature", "properties": { "OBJECTID": 86, "name": "徐州烧烤(大排档夜市店)", "lng": 119.036932, "lat": 31.656358, "address": "大东门街1号" }, "geometry": { "type": "Point", "coordinates": [ 119.025230801169855, 31.651938307473358 ] } },
{ "type": "Feature", "properties": { "OBJECTID": 87, "name": "南京金牛湖风景区-烧烤区", "lng": 118.983958, "lat": 32.475398, "address": "南京市六合区龙津南路103号金牛湖风景区内" }, "geometry": { "type": "Point", "coordinates": [ 118.972178772261714, 32.471895412941961 ] } },
{ "type": "Feature", "properties": { "OBJECTID": 88, "name": "大马虎烧烤(金盛南苑店)", "lng": 118.830098, "lat": 31.974445, "address": "金盛路236号" }, "geometry": { "type": "Point", "coordinates": [ 118.818485048979753, 31.970416873380966 ] } },
{ "type": "Feature", "properties": { "OBJECTID": 89, "name": "东北烤肉(钟鼎名悦店)", "lng": 118.867316, "lat": 32.042014, "address": "中山门大街钟鼎名悦广场3栋301、302室" }, "geometry": { "type": "Point", "coordinates": [ 118.855659973925412, 32.038546267982646 ] } },
{ "type": "Feature", "properties": { "OBJECTID": 90, "name": "蚝牛虾跑·露营餐厅(九龙湖店)", "lng": 118.829772, "lat": 31.920789, "address": "清水亭西路长亭街9号俊杰大厦露营平台" }, "geometry": { "type": "Point", "coordinates": [ 118.818180991377915, 31.916746739028728 ] } },
{ "type": "Feature", "properties": { "OBJECTID": 91, "name": "新疆特色烧烤(文昌街店)", "lng": 118.845473, "lat": 32.352908, "address": "雄州街道文昌街160号-7" }, "geometry": { "type": "Point", "coordinates": [ 118.833800079619436, 32.349249305660784 ] } },
{ "type": "Feature", "properties": { "OBJECTID": 92, "name": "火焰烧烤(交通路店)", "lng": 119.040397, "lat": 31.664792, "address": "交通路65-9号(城郊影剧院傍边)" }, "geometry": { "type": "Point", "coordinates": [ 119.028688515792297, 31.660336781247409 ] } },
{ "type": "Feature", "properties": { "OBJECTID": 93, "name": "常聚烧烤(新集东路店)", "lng": 118.735084, "lat": 32.311409, "address": "龙池街道" }, "geometry": { "type": "Point", "coordinates": [ 118.723253049097806, 32.307785791765184 ] } },
{ "type": "Feature", "properties": { "OBJECTID": 94, "name": "涛涛烧烤(园林西路店)", "lng": 118.849795, "lat": 32.35698, "address": "雄州街道园林西路9-22号" }, "geometry": { "type": "Point", "coordinates": [ 118.838116146555649, 32.353397490906033 ] } },
{ "type": "Feature", "properties": { "OBJECTID": 95, "name": "不晚巷烧烤", "lng": 118.908484, "lat": 32.037686, "address": "花港路8-24号106室" }, "geometry": { "type": "Point", "coordinates": [ 118.897028068073652, 32.03369270925544 ] } },
{ "type": "Feature", "properties": { "OBJECTID": 96, "name": "张氏大萝卜烧烤", "lng": 118.84194, "lat": 32.129696, "address": "宜春街29号万象天地四季" }, "geometry": { "type": "Point", "coordinates": [ 118.830308506518378, 32.125949512252795 ] } },
{ "type": "Feature", "properties": { "OBJECTID": 97, "name": "牧羊王烧烤(梅亭雅苑店)", "lng": 118.90196, "lat": 32.261814, "address": "五一路与单河中桥交叉路口西南侧梅亭雅苑东南门旁" }, "geometry": { "type": "Point", "coordinates": [ 118.89046287969542, 32.25796897964586 ] } },
{ "type": "Feature", "properties": { "OBJECTID": 98, "name": "给力烧烤(朝天街店)", "lng": 118.841445, "lat": 32.34359, "address": "江苏省南京市六合区朝天街97号" }, "geometry": { "type": "Point", "coordinates": [ 118.829774212489397, 32.339851141988149 ] } },
{ "type": "Feature", "properties": { "OBJECTID": 99, "name": "阿达西烧烤(佳源广场店)", "lng": 118.8862, "lat": 32.047203, "address": "江苏省南京市玄武区孝陵卫街道顾家营路59号佳源广场" }, "geometry": { "type": "Point", "coordinates": [ 118.874613123371617, 32.043587398119278 ] } },
{ "type": "Feature", "properties": { "OBJECTID": 100, "name": "盛辛巴·东北炭火烤肉(万寿店)", "lng": 118.847516, "lat": 32.126394, "address": "进取村154号22号门面房" }, "geometry": { "type": "Point", "coordinates": [ 118.835869761968766, 32.12275119269944 ] } },
{ "type": "Feature", "properties": { "OBJECTID": 101, "name": "小马烧烤(瑞平街店)", "lng": 118.861482, "lat": 32.120668, "address": "迈皋桥街道华银路17号17-10-108室" }, "geometry": { "type": "Point", "coordinates": [ 118.849820447039562, 32.117198059348361 ] } },
{ "type": "Feature", "properties": { "OBJECTID": 102, "name": "二龙山·水浒烤肉(中海国际店)", "lng": 118.916985, "lat": 32.033412, "address": "海麒花园05幢116室" }, "geometry": { "type": "Point", "coordinates": [ 118.905560424423896, 32.02931490496902 ] } },
{ "type": "Feature", "properties": { "OBJECTID": 103, "name": "西塔老太太泥炉烤肉(南京城北万象汇店)", "lng": 118.841664, "lat": 32.126851, "address": "栖霞大道106号南京城北万象汇B馆5楼L5085B号" }, "geometry": { "type": "Point", "coordinates": [ 118.830032390594283, 32.123098180628517 ] } },
{ "type": "Feature", "properties": { "OBJECTID": 104, "name": "彭城味道烧烤", "lng": 118.862117, "lat": 31.954567, "address": "南京市江宁区东新南路金宝市场" }, "geometry": { "type": "Point", "coordinates": [ 118.850438768019714, 31.951055306710764 ] } },
{ "type": "Feature", "properties": { "OBJECTID": 105, "name": "废墟烧烤酒馆", "lng": 119.032061, "lat": 31.659875, "address": "大西门街4-11号" }, "geometry": { "type": "Point", "coordinates": [ 119.020361394539052, 31.655522477164205 ] } },
{ "type": "Feature", "properties": { "OBJECTID": 106, "name": "迷姐烧烤", "lng": 118.8595, "lat": 31.956434, "address": "南京市桃园路42号" }, "geometry": { "type": "Point", "coordinates": [ 118.84782037896646, 31.952903896316606 ] } },
{ "type": "Feature", "properties": { "OBJECTID": 107, "name": "伊尔凡新疆烧烤", "lng": 118.869998, "lat": 31.941817, "address": "天元东路辅路与成元路交叉口南240米" }, "geometry": { "type": "Point", "coordinates": [ 118.858339302271602, 31.938319903609074 ] } },
{ "type": "Feature", "properties": { "OBJECTID": 108, "name": "从众江湖烧烤", "lng": 118.82873, "lat": 32.020608, "address": "南京市石杨路观前里5号" }, "geometry": { "type": "Point", "coordinates": [ 118.817146224078442, 32.016572278323004 ] } },
{ "type": "Feature", "properties": { "OBJECTID": 109, "name": "人间烟火烧烤(禄口店)", "lng": 118.868545, "lat": 31.784778, "address": "禄口街道文轩路188-4号" }, "geometry": { "type": "Point", "coordinates": [ 118.856929010373307, 31.781260242181229 ] } },
{ "type": "Feature", "properties": { "OBJECTID": 110, "name": "望京烧烤(林场路莉湖生活馆C馆店)", "lng": 118.849938, "lat": 32.324168, "address": "新棠路与四柳路交叉口西北角" }, "geometry": { "type": "Point", "coordinates": [ 118.838233874941992, 32.320579977116623 ] } },
{ "type": "Feature", "properties": { "OBJECTID": 111, "name": "朴奶奶锅盖烤肉店", "lng": 118.91433, "lat": 32.098431, "address": "仙隐北路12号亚东商业广场A5室" }, "geometry": { "type": "Point", "coordinates": [ 118.902873861100971, 32.094369902748774 ] } },
{ "type": "Feature", "properties": { "OBJECTID": 112, "name": "九道菜私房菜馆(桃园新居店)", "lng": 118.859849, "lat": 31.956605, "address": "桃园路56号" }, "geometry": { "type": "Point", "coordinates": [ 118.848169431545543, 31.953077821061246 ] } },
{ "type": "Feature", "properties": { "OBJECTID": 113, "name": "诱虾·四季现炒龙虾店(同曦店)", "lng": 118.829767, "lat": 31.950266, "address": "秣陵街道胜太东路8号同曦鸣城A-6幢15" }, "geometry": { "type": "Point", "coordinates": [ 118.818149633480587, 31.946223876585975 ] } },
{ "type": "Feature", "properties": { "OBJECTID": 114, "name": "金屋烧烤(丁家庄店)", "lng": 118.854418, "lat": 32.123245, "address": "丁家庄保障房片区二期A3地块和悦街10-19号" }, "geometry": { "type": "Point", "coordinates": [ 118.842759377688822, 32.119706871346239 ] } },
{ "type": "Feature", "properties": { "OBJECTID": 115, "name": "马路边烧烤", "lng": 118.83445, "lat": 32.143681, "address": "江苏省南京市栖霞区门坡街15-14号" }, "geometry": { "type": "Point", "coordinates": [ 118.822838230005132, 32.13978456771639 ] } },
{ "type": "Feature", "properties": { "OBJECTID": 116, "name": "烧烤研究所·龙虾·海鲜(新区大厂店)", "lng": 118.764058, "lat": 32.232602, "address": "毕洼路新华二村西区16号楼1楼101号" }, "geometry": { "type": "Point", "coordinates": [ 118.752264356418834, 32.228887389372062 ] } },
{ "type": "Feature", "properties": { "OBJECTID": 117, "name": "徐州马扎子碳锅烧烤六合店", "lng": 118.849696, "lat": 32.336307, "address": "江苏省南京市六合区雄州街道桥西路122号" }, "geometry": { "type": "Point", "coordinates": [ 118.837999365675273, 32.332717504488564 ] } },
{ "type": "Feature", "properties": { "OBJECTID": 118, "name": "新疆和田喀哈尔烧烤王", "lng": 118.867612, "lat": 32.041252, "address": "孝陵卫街85号左侧门面" }, "geometry": { "type": "Point", "coordinates": [ 118.855957397093007, 32.037784491517456 ] } },
{ "type": "Feature", "properties": { "OBJECTID": 119, "name": "和田阿卜都羊肉烧烤店", "lng": 118.844199, "lat": 31.843797, "address": "南京市江宁区玉麟街天禧公寓西北侧约60米" }, "geometry": { "type": "Point", "coordinates": [ 118.832551959533646, 31.840022441745703 ] } },
{ "type": "Feature", "properties": { "OBJECTID": 120, "name": "小丁徐州烧烤(凤来南园店)", "lng": 118.852459, "lat": 32.121829, "address": "江苏省南京市栖霞区迈皋桥街道寅春路88" }, "geometry": { "type": "Point", "coordinates": [ 118.840801832338585, 32.118263693330078 ] } },
{ "type": "Feature", "properties": { "OBJECTID": 121, "name": "小方烧烤(大东门街店)", "lng": 119.037024, "lat": 31.656325, "address": "南京市溧水区大东门街尚溧城南侧约90米" }, "geometry": { "type": "Point", "coordinates": [ 119.025322717083199, 31.651904228707522 ] } },
{ "type": "Feature", "properties": { "OBJECTID": 122, "name": "彭城饭局·辣椒炒鸡(赛世香樟园店)", "lng": 118.927736, "lat": 32.107923, "address": "文苑路108号大成名店公园" }, "geometry": { "type": "Point", "coordinates": [ 118.916300186826078, 32.103792357273953 ] } },
{ "type": "Feature", "properties": { "OBJECTID": 123, "name": "强哥大排档烧烤", "lng": 118.951415, "lat": 32.141562, "address": "江苏省南京市栖霞区红枫街18号" }, "geometry": { "type": "Point", "coordinates": [ 118.939886869495808, 32.137676846732461 ] } },
{ "type": "Feature", "properties": { "OBJECTID": 124, "name": "小伟烧腊店(秣陵店)", "lng": 118.846038, "lat": 31.837113, "address": "桥南大街1号" }, "geometry": { "type": "Point", "coordinates": [ 118.834385614642713, 31.833371092439773 ] } },
{ "type": "Feature", "properties": { "OBJECTID": 125, "name": "大东北铁锅炖烧烤炒菜", "lng": 118.947114, "lat": 31.936391, "address": "淳化街道梨园路E5号(第二幼儿园对面)" }, "geometry": { "type": "Point", "coordinates": [ 118.935604325158891, 31.932385442863822 ] } },
{ "type": "Feature", "properties": { "OBJECTID": 126, "name": "新疆和田兄弟烧烤店", "lng": 118.956719, "lat": 31.802595, "address": "南京市江宁区齐尚街紫金农商银行(周岗支行)北侧约160米" }, "geometry": { "type": "Point", "coordinates": [ 118.945168507503197, 31.798722541466013 ] } },
{ "type": "Feature", "properties": { "OBJECTID": 127, "name": "爱烤不烤(鹭岛西路店)", "lng": 118.802985, "lat": 32.336574, "address": "南京市鹭岛西路2号" }, "geometry": { "type": "Point", "coordinates": [ 118.791353313844382, 32.332325529965701 ] } },
{ "type": "Feature", "properties": { "OBJECTID": 128, "name": "新疆麦麦提烧烤", "lng": 118.863157, "lat": 32.354116, "address": "南京市六合区园林东路龙海新加坡花园城北侧" }, "geometry": { "type": "Point", "coordinates": [ 118.85146918163052, 32.350678945541148 ] } },
{ "type": "Feature", "properties": { "OBJECTID": 129, "name": "新疆阿凡提香烧烤(秦淮源筑店)", "lng": 119.033298, "lat": 31.680561, "address": "经济开发区双塘南路68-11室" }, "geometry": { "type": "Point", "coordinates": [ 119.021582909570796, 31.676187024949176 ] } },
{ "type": "Feature", "properties": { "OBJECTID": 130, "name": "二师兄烧烤(禄口店)", "lng": 118.868135, "lat": 31.785452, "address": "文轩路39号" }, "geometry": { "type": "Point", "coordinates": [ 118.856517721621444, 31.781934352183178 ] } },
{ "type": "Feature", "properties": { "OBJECTID": 131, "name": "考不烤肉(通济街店)", "lng": 119.033925, "lat": 31.662676, "address": "通济街广场4-11号（一点点对面）" }, "geometry": { "type": "Point", "coordinates": [ 119.022224014946701, 31.658295423929356 ] } },
{ "type": "Feature", "properties": { "OBJECTID": 132, "name": "四子烧烤(前街店)", "lng": 118.847405, "lat": 32.346456, "address": "前街板门口" }, "geometry": { "type": "Point", "coordinates": [ 118.835721865355168, 32.342830479388006 ] } },
{ "type": "Feature", "properties": { "OBJECTID": 133, "name": "徐记烧烤", "lng": 118.947265, "lat": 31.936767, "address": "南京市淳化镇华晟园A区07室" }, "geometry": { "type": "Point", "coordinates": [ 118.935754018969845, 31.932763708320159 ] } },
{ "type": "Feature", "properties": { "OBJECTID": 134, "name": "周记兄弟龙虾烧烤", "lng": 118.894587, "lat": 32.133971, "address": "南京市栖霞区翠林北路盈嘉香榴湾" }, "geometry": { "type": "Point", "coordinates": [ 118.883060688761702, 32.130239359349005 ] } },
{ "type": "Feature", "properties": { "OBJECTID": 135, "name": "老四烧烤(新大街店)", "lng": 118.998898, "lat": 32.275157, "address": "江苏省南京市六合区新大街6号" }, "geometry": { "type": "Point", "coordinates": [ 118.987106364543934, 32.271550784406955 ] } },
{ "type": "Feature", "properties": { "OBJECTID": 136, "name": "BOBO火锅羊蝎子烧烤", "lng": 119.199262, "lat": 32.212441, "address": "南京市栖霞区小学路南京市营防中学长江校区教师楼东北侧约170米" }, "geometry": { "type": "Point", "coordinates": [ 119.187379830649235, 32.208481895340604 ] } },
{ "type": "Feature", "properties": { "OBJECTID": 137, "name": "大胡子烧烤(麒麟门店)", "lng": 118.930076, "lat": 32.061467, "address": "麒麟街道宣义路3号门面房(浩仔造型对面)" }, "geometry": { "type": "Point", "coordinates": [ 118.918624688704625, 32.057326009450378 ] } },
{ "type": "Feature", "properties": { "OBJECTID": 138, "name": "玲姐烧烤", "lng": 118.895066, "lat": 32.125806, "address": "南京市栖霞区太龙路尧石二村东侧约80米" }, "geometry": { "type": "Point", "coordinates": [ 118.883540643759929, 32.122063542366533 ] } },
{ "type": "Feature", "properties": { "OBJECTID": 139, "name": "心相约烧烤", "lng": 118.9419, "lat": 32.432365, "address": "江苏省南京市六合区八百大道286号" }, "geometry": { "type": "Point", "coordinates": [ 118.930367330961857, 32.428346845751228 ] } },
{ "type": "Feature", "properties": { "OBJECTID": 140, "name": "奇缘烤全羊", "lng": 119.02195, "lat": 31.975177, "address": "清风大道汤山七坊42号" }, "geometry": { "type": "Point", "coordinates": [ 119.010185649990305, 31.971056269006542 ] } },
{ "type": "Feature", "properties": { "OBJECTID": 141, "name": "米姐大排档烧烤龙虾", "lng": 118.752575, "lat": 32.235532, "address": "江苏省南京市六合区园东路261号" }, "geometry": { "type": "Point", "coordinates": [ 118.740752941490499, 32.231942522470661 ] } },
{ "type": "Feature", "properties": { "OBJECTID": 142, "name": "东北烧烤龙虾铁锅炖(恒大店)", "lng": 119.0708, "lat": 31.70643, "address": "永湖路188号恒大金碧天下商业中心102号" }, "geometry": { "type": "Point", "coordinates": [ 119.058908876411934, 31.70213399524533 ] } },
{ "type": "Feature", "properties": { "OBJECTID": 143, "name": "奎子烧烤面馆(阳光聚宝山庄海棠街区店)", "lng": 118.868272, "lat": 32.099363, "address": "玄武大道88号阳光聚宝山庄" }, "geometry": { "type": "Point", "coordinates": [ 118.856601992066715, 32.095905169758481 ] } },
{ "type": "Feature", "properties": { "OBJECTID": 144, "name": "滋滋炭火小烤肉", "lng": 118.888133, "lat": 31.706462, "address": "禄口街道石埝社区金城步行街5-025" }, "geometry": { "type": "Point", "coordinates": [ 118.876572256574221, 31.702748065493044 ] } },
{ "type": "Feature", "properties": { "OBJECTID": 145, "name": "柒友炭火烤肉", "lng": 118.947369, "lat": 31.93748, "address": "华晟园c区01栋" }, "geometry": { "type": "Point", "coordinates": [ 118.935856697961853, 31.933478275355434 ] } },
{ "type": "Feature", "properties": { "OBJECTID": 146, "name": "天台烧烤", "lng": 118.894324, "lat": 32.132242, "address": "江苏省南京市栖霞区金尧路21号金地宝龙峯汇中心2层" }, "geometry": { "type": "Point", "coordinates": [ 118.882796049325037, 32.128514638698789 ] } },
{ "type": "Feature", "properties": { "OBJECTID": 147, "name": "古彭7只羊·徐州烧烤(竹山路店)", "lng": 118.851971, "lat": 31.942226, "address": "南京市江宁区竹山路蓝天公寓东侧约30米" }, "geometry": { "type": "Point", "coordinates": [ 118.840302510017793, 31.938605904715846 ] } },
{ "type": "Feature", "properties": { "OBJECTID": 148, "name": "润足堂烧烤(西外街店)", "lng": 118.836903, "lat": 32.353596, "address": "江苏省南京市六合区西外街42号" }, "geometry": { "type": "Point", "coordinates": [ 118.825254328821842, 32.349767523590558 ] } },
{ "type": "Feature", "properties": { "OBJECTID": 149, "name": "烧烤龙虾(中粮·鸿云坊店)", "lng": 118.888366, "lat": 31.997709, "address": "南京市江宁区远泰路中粮鸿云" }, "geometry": { "type": "Point", "coordinates": [ 118.876808085485351, 31.99405184337709 ] } },
{ "type": "Feature", "properties": { "OBJECTID": 150, "name": "大鸡蛋烧烤(碧景山庄店)", "lng": 118.782986, "lat": 32.240997, "address": "大厂街道兴达路20号" }, "geometry": { "type": "Point", "coordinates": [ 118.771298226243886, 32.236958600253971 ] } },
{ "type": "Feature", "properties": { "OBJECTID": 151, "name": "小王徐州烧烤(南京荣盛广场店)", "lng": 118.845924, "lat": 32.339703, "address": "雄州东路南京荣盛广场底商LG1" }, "geometry": { "type": "Point", "coordinates": [ 118.834238138702986, 32.336049058112934 ] } },
{ "type": "Feature", "properties": { "OBJECTID": 152, "name": "有故事炸串铁板烤串(中南·世纪雅苑店)", "lng": 118.913855, "lat": 32.042661, "address": "中南世纪雅苑C7栋20号" }, "geometry": { "type": "Point", "coordinates": [ 118.902413214680521, 32.038596063920963 ] } },
{ "type": "Feature", "properties": { "OBJECTID": 153, "name": "新疆喀什烤肉", "lng": 118.885706, "lat": 31.94419, "address": "义乌小商品城义乌路货亭11号(珍牛对面)" }, "geometry": { "type": "Point", "coordinates": [ 118.874111383966849, 31.940554177756884 ] } },
{ "type": "Feature", "properties": { "OBJECTID": 154, "name": "楚之南特色烧烤", "lng": 118.868432, "lat": 31.797286, "address": "天禄大道奥斯博恩庄园底商" }, "geometry": { "type": "Point", "coordinates": [ 118.856805771253278, 31.793767865815337 ] } },
{ "type": "Feature", "properties": { "OBJECTID": 155, "name": "美味烤羊肉串烧烤(泰亿店)", "lng": 118.742522, "lat": 32.220595, "address": "江北新区大厂街道泰亿农贸市场美食长廊餐车1-1号摊位" }, "geometry": { "type": "Point", "coordinates": [ 118.730690752240193, 32.217015412596034 ] } },
{ "type": "Feature", "properties": { "OBJECTID": 156, "name": "红胡子烧烤", "lng": 118.611769, "lat": 32.492591, "address": "南京市六合区竹镇镇竹金路358号巴布洛生态谷梦想亲子田园烧烤广场" }, "geometry": { "type": "Point", "coordinates": [ 118.600169343565554, 32.489099207518315 ] } },
{ "type": "Feature", "properties": { "OBJECTID": 157, "name": "夜宵江湖·烧烤", "lng": 118.749807, "lat": 32.244417, "address": "江苏省南京市六合区松杨路74号" }, "geometry": { "type": "Point", "coordinates": [ 118.73798873424893, 32.240843992965338 ] } },
{ "type": "Feature", "properties": { "OBJECTID": 158, "name": "陆记乐烤吧(中山科技园商业街店)", "lng": 118.739566, "lat": 32.264884, "address": "中鑫路318号131室" }, "geometry": { "type": "Point", "coordinates": [ 118.727760113957359, 32.261302108038677 ] } },
{ "type": "Feature", "properties": { "OBJECTID": 159, "name": "旭日小串(苏宁·紫金嘉悦店)", "lng": 118.895262, "lat": 32.10302, "address": "紫金嘉悦广场10-112" }, "geometry": { "type": "Point", "coordinates": [ 118.883720220627296, 32.099264158649163 ] } },
{ "type": "Feature", "properties": { "OBJECTID": 160, "name": "田园烧烤(金航路店)", "lng": 118.896818, "lat": 31.726686, "address": "金航路与五圩路交叉口东北60米" }, "geometry": { "type": "Point", "coordinates": [ 118.88530573365253, 31.722824210926852 ] } },
{ "type": "Feature", "properties": { "OBJECTID": 161, "name": "二汪特色烧烤", "lng": 118.890466, "lat": 32.28792, "address": "六合区雄州街道砂子沟社区贾裴商业街27号" }, "geometry": { "type": "Point", "coordinates": [ 118.87888033200224, 32.284274756126962 ] } },
{ "type": "Feature", "properties": { "OBJECTID": 162, "name": "东北烧烤(进取村店)", "lng": 118.848021, "lat": 32.126971, "address": "万寿进取村154-34号" }, "geometry": { "type": "Point", "coordinates": [ 118.836373922302826, 32.123337151197234 ] } },
{ "type": "Feature", "properties": { "OBJECTID": 163, "name": "燃情烧烤", "lng": 118.865743, "lat": 31.777721, "address": "南京市江宁区禄口镇正阳路153号" }, "geometry": { "type": "Point", "coordinates": [ 118.854124155032963, 31.774199999957919 ] } },
{ "type": "Feature", "properties": { "OBJECTID": 164, "name": "韩记图门古法烧烤城", "lng": 118.842387, "lat": 31.845376, "address": "江苏省南京市江宁区正方中路1号" }, "geometry": { "type": "Point", "coordinates": [ 118.83074517432614, 31.841566829048844 ] } },
{ "type": "Feature", "properties": { "OBJECTID": 165, "name": "阿兴烧烤", "lng": 118.842424, "lat": 31.845568, "address": "南京市江宁区故治路白玉兰宾馆东南侧约90米" }, "geometry": { "type": "Point", "coordinates": [ 118.83078215129747, 31.841759618081745 ] } },
{ "type": "Feature", "properties": { "OBJECTID": 166, "name": "丁氏龙虾烧烤", "lng": 119.074218, "lat": 32.055535, "address": "汤泉东路154号" }, "geometry": { "type": "Point", "coordinates": [ 119.062278253132007, 32.051363935718868 ] } },
{ "type": "Feature", "properties": { "OBJECTID": 167, "name": "箐禾·荷叶烤鸡(万达茂店)", "lng": 118.981995, "lat": 32.129967, "address": "学森路8号" }, "geometry": { "type": "Point", "coordinates": [ 118.970266210422835, 32.126453143600202 ] } },
{ "type": "Feature", "properties": { "OBJECTID": 168, "name": "刘记东北烧烤大灶台", "lng": 119.037297, "lat": 31.656624, "address": "珍珠南路13号" }, "geometry": { "type": "Point", "coordinates": [ 119.025595412488329, 31.652200081475616 ] } },
{ "type": "Feature", "properties": { "OBJECTID": 169, "name": "西安特色烤面筋(第81档口殷巷夜市美食城店)", "lng": 118.836034, "lat": 31.919969, "address": "秣陵街道双龙大道2191号(江宁开发区)（超市）" }, "geometry": { "type": "Point", "coordinates": [ 118.824426318222066, 31.916052740040826 ] } },
{ "type": "Feature", "properties": { "OBJECTID": 170, "name": "辉子烧烤", "lng": 118.687959, "lat": 32.511604, "address": "仕林路302号" }, "geometry": { "type": "Point", "coordinates": [ 118.676404825520578, 32.507396191829052 ] } },
{ "type": "Feature", "properties": { "OBJECTID": 171, "name": "来来烤肉(文鸿路店)", "lng": 118.903575, "lat": 31.891212, "address": "文鸿路世茂梦享家6号楼1楼14-6号" }, "geometry": { "type": "Point", "coordinates": [ 118.892119795894928, 31.887267176893367 ] } },
{ "type": "Feature", "properties": { "OBJECTID": 172, "name": "玲玲家秘制烤面筋(俊杰广场店)", "lng": 118.830043, "lat": 31.921567, "address": "长亭街9号俊杰科创大厦一楼101室" }, "geometry": { "type": "Point", "coordinates": [ 118.818450443278053, 31.917529965257401 ] } },
{ "type": "Feature", "properties": { "OBJECTID": 173, "name": "恰点烧烤·重庆江湖菜", "lng": 118.865701, "lat": 31.777875, "address": "禄口街道茅亭社区正阳路178-1号" }, "geometry": { "type": "Point", "coordinates": [ 118.854082058575145, 31.774353918275278 ] } },
{ "type": "Feature", "properties": { "OBJECTID": 174, "name": "羊老伯地摊烧烤", "lng": 118.860915, "lat": 32.126489, "address": "南京市栖霞区和悦街凤和东园东侧约40米" }, "geometry": { "type": "Point", "coordinates": [ 118.849256152698814, 32.123017293480473 ] } },
{ "type": "Feature", "properties": { "OBJECTID": 175, "name": "全味烧烤", "lng": 118.931777, "lat": 32.056393, "address": "南京市江宁区悦民路中南麒麟锦城" }, "geometry": { "type": "Point", "coordinates": [ 118.920326384618022, 32.052257897440711 ] } },
{ "type": "Feature", "properties": { "OBJECTID": 176, "name": "酒匠烧烤", "lng": 118.914612, "lat": 32.103352, "address": "江苏省南京市栖霞区仙林街道东城汇" }, "geometry": { "type": "Point", "coordinates": [ 118.903161000163934, 32.099290091240107 ] } },
{ "type": "Feature", "properties": { "OBJECTID": 177, "name": "符离集童仔烤鸡(江宁店)", "lng": 118.907898, "lat": 31.921663, "address": "南京市东山街道龙眠大道618号协众雅居11幢125室(江宁高新园)" }, "geometry": { "type": "Point", "coordinates": [ 118.896446049625965, 31.917650970291756 ] } },
{ "type": "Feature", "properties": { "OBJECTID": 178, "name": "整点烧烤", "lng": 119.077327, "lat": 32.194819, "address": "南京市栖霞区平港路南京东方集装箱有限公司" }, "geometry": { "type": "Point", "coordinates": [ 119.065342552703484, 32.190725324839974 ] } },
{ "type": "Feature", "properties": { "OBJECTID": 179, "name": "方山汽摩户外烧烤团建基地", "lng": 118.876642, "lat": 31.888769, "address": "江苏省南京市江宁区淳化街道吉印大道辅路" }, "geometry": { "type": "Point", "coordinates": [ 118.865042745536456, 31.88523543053806 ] } },
{ "type": "Feature", "properties": { "OBJECTID": 180, "name": "老六烧烤大排档", "lng": 118.896351, "lat": 31.969261, "address": "南京市江宁区新润路朗诗玲珑郡南侧约70米" }, "geometry": { "type": "Point", "coordinates": [ 118.884815793680147, 31.965452482886178 ] } },
{ "type": "Feature", "properties": { "OBJECTID": 181, "name": "吉林烧烤", "lng": 118.841071, "lat": 31.91648, "address": "南京市江宁区集源街南京禅武道馆" }, "geometry": { "type": "Point", "coordinates": [ 118.829452524745435, 31.912666531583419 ] } },
{ "type": "Feature", "properties": { "OBJECTID": 182, "name": "蚝哥烤生蚝(第二十八档口店)", "lng": 118.816879, "lat": 32.333798, "address": "龙池街道观龙路8号" }, "geometry": { "type": "Point", "coordinates": [ 118.805257214785399, 32.329615603533028 ] } },
{ "type": "Feature", "properties": { "OBJECTID": 183, "name": "蒙古三鲜烤羊肉", "lng": 118.838201, "lat": 32.109856, "address": "南京市玄武区营苑北路营苑新寓东北侧" }, "geometry": { "type": "Point", "coordinates": [ 118.826567478634075, 32.106026167910272 ] } },
{ "type": "Feature", "properties": { "OBJECTID": 184, "name": "西施脆皮鸡巴西烤肉饭(义乌小商品城店)", "lng": 118.884883, "lat": 31.943738, "address": "义乌小商品城单身公寓D区2栋27号" }, "geometry": { "type": "Point", "coordinates": [ 118.873284272238919, 31.940114039278303 ] } },
{ "type": "Feature", "properties": { "OBJECTID": 185, "name": "大王海鲜烧烤城", "lng": 118.769343, "lat": 32.251694, "address": "江苏省南京市六合区大厂街道平顶山路88号" }, "geometry": { "type": "Point", "coordinates": [ 118.757583929550918, 32.247900088143552 ] } },
{ "type": "Feature", "properties": { "OBJECTID": 186, "name": "飒烤深夜食堂", "lng": 118.935368, "lat": 32.42727, "address": "南京市六合区招贤西路聚贤新城" }, "geometry": { "type": "Point", "coordinates": [ 118.923866471771291, 32.423188183863331 ] } },
{ "type": "Feature", "properties": { "OBJECTID": 187, "name": "韩国小饭馆传统碳火烤肉", "lng": 118.986646, "lat": 31.871582, "address": "湖熟街道灵顺北路181号" }, "geometry": { "type": "Point", "coordinates": [ 118.974910909621457, 31.868005064184242 ] } },
{ "type": "Feature", "properties": { "OBJECTID": 188, "name": "怡点烧烤龙虾", "lng": 118.842407, "lat": 31.845429, "address": "南京市江宁区故治路白玉兰宾馆东南侧约100米" }, "geometry": { "type": "Point", "coordinates": [ 118.830765141858976, 31.841620239282733 ] } },
{ "type": "Feature", "properties": { "OBJECTID": 189, "name": "铁板酱汁豆腐", "lng": 118.884684, "lat": 31.945025, "address": "天元东路388号(龙眠大道地铁站2号口步行90米)" }, "geometry": { "type": "Point", "coordinates": [ 118.873083350672431, 31.941403946777143 ] } },
{ "type": "Feature", "properties": { "OBJECTID": 190, "name": "夸父炸串(同曦假日百货店)", "lng": 118.828527, "lat": 31.949395, "address": "秣陵街道双龙大道同曦假日百货B1层" }, "geometry": { "type": "Point", "coordinates": [ 118.816913184383395, 31.945329027764597 ] } },
{ "type": "Feature", "properties": { "OBJECTID": 191, "name": "食也烤肉牛排脆皮鸡(大成名店公园店)", "lng": 118.928657, "lat": 32.107928, "address": "南京市栖霞区文苑路108号大成名店公园B1" }, "geometry": { "type": "Point", "coordinates": [ 118.917219954957531, 32.103798263112701 ] } },
{ "type": "Feature", "properties": { "OBJECTID": 192, "name": "地道铁板烧·炒饭炒面", "lng": 118.894853, "lat": 32.05212, "address": "马群街169号青葱时代广场二楼" }, "geometry": { "type": "Point", "coordinates": [ 118.883310389960457, 32.048359675517013 ] } },
{ "type": "Feature", "properties": { "OBJECTID": 193, "name": "耳鸟户外·团建·烧烤·露营(桦墅村店)", "lng": 119.035579, "lat": 32.116449, "address": "西岗街道周冲村48号" }, "geometry": { "type": "Point", "coordinates": [ 119.023827946484573, 32.112125538074984 ] } }
]
}
