{
"type": "FeatureCollection",
"name": "网咖",
"crs": { "type": "name", "properties": { "name": "urn:ogc:def:crs:OGC:1.3:CRS84" } },
"xy_coordinate_resolution": 1e-15,
"features": [
{ "type": "Feature", "properties": { "OBJECTID": 1, "name": "网鱼网咖·电竞(南京新街口丹凤街店)", "lng": 118.793238, "lat": 32.059298, "address": "新街口街道唱经楼西街1-5号", "Field5": null, "Field6": null }, "geometry": { "type": "Point", "coordinates": [ 118.78159359107309, 32.055075119102064 ] } },
{ "type": "Feature", "properties": { "OBJECTID": 2, "name": "网鱼网咖·电竞(南京玄武下马坊店)", "lng": 118.856722, "lat": 32.043237, "address": "中山门大街99号-3-204", "Field5": null, "Field6": null }, "geometry": { "type": "Point", "coordinates": [ 118.845056839708349, 32.039705898730666 ] } },
{ "type": "Feature", "properties": { "OBJECTID": 3, "name": "网鱼网咖·电竞(南京栖霞迈皋桥店)", "lng": 118.816633, "lat": 32.108321, "address": "红山路高家村42号3幢底商", "Field5": null, "Field6": null }, "geometry": { "type": "Point", "coordinates": [ 118.80504559415084, 32.104112267894976 ] } },
{ "type": "Feature", "properties": { "OBJECTID": 4, "name": "青春飞扬网咖(鼓楼区红山动物园北门美华店)", "lng": 118.805645, "lat": 32.101657, "address": "和燕路168号", "Field5": null, "Field6": null }, "geometry": { "type": "Point", "coordinates": [ 118.794045063871465, 32.097379176599269 ] } },
{ "type": "Feature", "properties": { "OBJECTID": 5, "name": "网鱼网咖·电竞(南京光华荟店)", "lng": 118.822619, "lat": 32.028802, "address": "御道街113号光华荟2层233室", "Field5": null, "Field6": null }, "geometry": { "type": "Point", "coordinates": [ 118.811044208321547, 32.024660334141757 ] } },
{ "type": "Feature", "properties": { "OBJECTID": 6, "name": "树呆熊网咖(南京南站广场店)", "lng": 118.804909, "lat": 31.97145, "address": "江南路9号高铁网谷B座一楼106-107室", "Field5": null, "Field6": null }, "geometry": { "type": "Point", "coordinates": [ 118.793310261511039, 31.967140387995759 ] } },
{ "type": "Feature", "properties": { "OBJECTID": 7, "name": "网鱼网咖·电竞(南京新街口珠江路店)", "lng": 118.800268, "lat": 32.055472, "address": "珠江路333号百脑汇2层", "Field5": null, "Field6": null }, "geometry": { "type": "Point", "coordinates": [ 118.788653956256383, 32.051193936678494 ] } },
{ "type": "Feature", "properties": { "OBJECTID": 8, "name": "网鱼网咖·电竞(南京栖霞花港路店)", "lng": 118.907518, "lat": 32.038066, "address": "马群街道西花岗花港路9-20号301", "Field5": 302, "Field6": "303室" }, "geometry": { "type": "Point", "coordinates": [ 118.896057523350578, 32.034087357259402 ] } },
{ "type": "Feature", "properties": { "OBJECTID": 9, "name": "网鱼网咖·电竞(南京三山街地铁站店)", "lng": 118.788285, "lat": 32.028054, "address": "中山南路395号101美食广场2楼", "Field5": null, "Field6": null }, "geometry": { "type": "Point", "coordinates": [ 118.776647436422436, 32.023894190942002 ] } },
{ "type": "Feature", "properties": { "OBJECTID": 10, "name": "网鱼网咖·电竞(溧水通济街店)", "lng": 119.03611, "lat": 31.663961, "address": "永阳镇通济街商业广场涌鑫13幢45号", "Field5": null, "Field6": null }, "geometry": { "type": "Point", "coordinates": [ 119.024407179356402, 31.659551098430676 ] } },
{ "type": "Feature", "properties": { "OBJECTID": 11, "name": "网鱼网咖·电竞(南京交院店)", "lng": 118.909416, "lat": 31.920299, "address": "龙眠大道与格致路交叉口西泰禾巨幕影城二楼", "Field5": null, "Field6": null }, "geometry": { "type": "Point", "coordinates": [ 118.897971813916826, 31.916264519808639 ] } },
{ "type": "Feature", "properties": { "OBJECTID": 12, "name": "网鱼网咖·电竞(友谊街店)", "lng": 118.721275, "lat": 31.977708, "address": "友谊街66号三楼", "Field5": null, "Field6": null }, "geometry": { "type": "Point", "coordinates": [ 118.70956133456697, 31.973841858304294 ] } },
{ "type": "Feature", "properties": { "OBJECTID": 13, "name": "踏浪网咖(银城街店)", "lng": 118.743144, "lat": 32.059813, "address": "漓江路28号全季酒店3楼", "Field5": null, "Field6": null }, "geometry": { "type": "Point", "coordinates": [ 118.731319607013177, 32.056203825254791 ] } },
{ "type": "Feature", "properties": { "OBJECTID": 14, "name": "踏浪网咖(秦虹小区店)", "lng": 118.809326, "lat": 32.019927, "address": "秦虹街道文安街23号(近节制闸口)", "Field5": null, "Field6": null }, "geometry": { "type": "Point", "coordinates": [ 118.797761940255484, 32.015646527099015 ] } },
{ "type": "Feature", "properties": { "OBJECTID": 15, "name": "网鱼网咖·电竞(南京江宁胜太路地铁站店)", "lng": 118.828891, "lat": 31.949962, "address": "胜太东路同曦大厦B座3楼308", "Field5": null, "Field6": null }, "geometry": { "type": "Point", "coordinates": [ 118.817276023910509, 31.945903010738544 ] } },
{ "type": "Feature", "properties": { "OBJECTID": 16, "name": "网鱼网咖·电竞(南京新街口石鼓路店)", "lng": 118.788384, "lat": 32.045525, "address": "石鼓路56号207室", "Field5": null, "Field6": null }, "geometry": { "type": "Point", "coordinates": [ 118.776730236486969, 32.041363656125618 ] } },
{ "type": "Feature", "properties": { "OBJECTID": 17, "name": "踏浪网咖(江东中路店)", "lng": 118.744737, "lat": 32.043471, "address": "江东北路73-1号（典雅居底商）", "Field5": null, "Field6": null }, "geometry": { "type": "Point", "coordinates": [ 118.732927102583673, 32.039865189621359 ] } },
{ "type": "Feature", "properties": { "OBJECTID": 18, "name": "网鱼网咖·电竞(南京建邺奥体东店)", "lng": 118.732704, "lat": 32.005848, "address": "沙洲街道江东中路中泰国际广场3层3F-05室", "Field5": null, "Field6": null }, "geometry": { "type": "Point", "coordinates": [ 118.720947664383857, 32.002160182422465 ] } },
{ "type": "Feature", "properties": { "OBJECTID": 19, "name": "网鱼网咖·电竞(南京金地广场店)", "lng": 118.894228, "lat": 32.131728, "address": "金地宝龙峰汇中心金尧路18-24号", "Field5": null, "Field6": null }, "geometry": { "type": "Point", "coordinates": [ 118.882699427787998, 32.128002216920812 ] } },
{ "type": "Feature", "properties": { "OBJECTID": 20, "name": "网鱼网咖·电竞(南京栖霞大成名店)", "lng": 118.928393, "lat": 32.1079, "address": "文苑路108号大成名店公园3楼3002、3003", "Field5": null, "Field6": null }, "geometry": { "type": "Point", "coordinates": [ 118.916956311069143, 32.103769910253455 ] } },
{ "type": "Feature", "properties": { "OBJECTID": 21, "name": "踏浪网咖(夫子庙店)", "lng": 118.794532, "lat": 32.029549, "address": "建康路115号3楼(水平方旁边)", "Field5": null, "Field6": null }, "geometry": { "type": "Point", "coordinates": [ 118.782922982964479, 32.025313390838484 ] } },
{ "type": "Feature", "properties": { "OBJECTID": 22, "name": "网鱼网咖·电竞(南京浦口万汇城店)", "lng": 118.66589, "lat": 32.069426, "address": "浦口大道6号3幢107-110室", "Field5": null, "Field6": null }, "geometry": { "type": "Point", "coordinates": [ 118.654341425831447, 32.065420119353476 ] } },
{ "type": "Feature", "properties": { "OBJECTID": 23, "name": "踏浪网咖(尧化门店)", "lng": 118.893535, "lat": 32.132078, "address": "翠林路1-22号", "Field5": null, "Field6": null }, "geometry": { "type": "Point", "coordinates": [ 118.882002426117211, 32.128364573856103 ] } },
{ "type": "Feature", "properties": { "OBJECTID": 24, "name": "徐盟电竞(瑾家珑熹台店)", "lng": 118.925177, "lat": 31.900215, "address": "淳化街道福英路505号瑾家龙熹台s2栋202室", "Field5": null, "Field6": null }, "geometry": { "type": "Point", "coordinates": [ 118.913778254297583, 31.896044048655632 ] } },
{ "type": "Feature", "properties": { "OBJECTID": 25, "name": "踏浪网咖(油坊桥店)", "lng": 118.727139, "lat": 31.971622, "address": "莲花路(地铁二号线油坊桥站)上盖物业A1楼2层3单元", "Field5": null, "Field6": null }, "geometry": { "type": "Point", "coordinates": [ 118.715384835245899, 31.967845652035791 ] } },
{ "type": "Feature", "properties": { "OBJECTID": 26, "name": "网鱼网咖·电竞(栖霞万寿地铁站店)", "lng": 118.839925, "lat": 32.128608, "address": "燕城大道1号招商·花园城后门停车场入口处F1层", "Field5": null, "Field6": null }, "geometry": { "type": "Point", "coordinates": [ 118.828298831108441, 32.124820817110226 ] } },
{ "type": "Feature", "properties": { "OBJECTID": 27, "name": "怡情网络(花园路店)", "lng": 118.830617, "lat": 32.086504, "address": "花园路18号", "Field5": null, "Field6": null }, "geometry": { "type": "Point", "coordinates": [ 118.818986983209356, 32.082509823855048 ] } },
{ "type": "Feature", "properties": { "OBJECTID": 28, "name": "极客电竞馆(常府街孙赛莺店)", "lng": 118.802922, "lat": 32.040272, "address": "五老村街道常府街54号2楼(建设银行斜对面)", "Field5": null, "Field6": null }, "geometry": { "type": "Point", "coordinates": [ 118.791331672074037, 32.035985569474775 ] } },
{ "type": "Feature", "properties": { "OBJECTID": 29, "name": "猫王电竞(马群店)", "lng": 118.902456, "lat": 32.059917, "address": "马群新街99号", "Field5": null, "Field6": null }, "geometry": { "type": "Point", "coordinates": [ 118.890948394218427, 32.056021034076757 ] } },
{ "type": "Feature", "properties": { "OBJECTID": 30, "name": "踏浪网咖(成山公寓店)", "lng": 118.871264, "lat": 31.950707, "address": "天印大道1291号", "Field5": null, "Field6": null }, "geometry": { "type": "Point", "coordinates": [ 118.859603614429304, 31.947207601617961 ] } },
{ "type": "Feature", "properties": { "OBJECTID": 31, "name": "宜博电竞馆(田冲店)", "lng": 119.028667, "lat": 31.687203, "address": "红光西路万景佳苑5幢125、213—218室", "Field5": null, "Field6": null }, "geometry": { "type": "Point", "coordinates": [ 119.016944032993024, 31.682903748454631 ] } },
{ "type": "Feature", "properties": { "OBJECTID": 32, "name": "踏浪网咖(南方花园店)", "lng": 118.824762, "lat": 31.966644, "address": "双龙大道830号（近南方花园）", "Field5": null, "Field6": null }, "geometry": { "type": "Point", "coordinates": [ 118.813157102409008, 31.962514602852519 ] } },
{ "type": "Feature", "properties": { "OBJECTID": 33, "name": "踏浪网咖(工业大学店)", "lng": 118.647362, "lat": 32.077204, "address": "龙华路2号", "Field5": null, "Field6": null }, "geometry": { "type": "Point", "coordinates": [ 118.635756349767419, 32.073561687500472 ] } },
{ "type": "Feature", "properties": { "OBJECTID": 34, "name": "踏浪网咖(大厂店)", "lng": 118.772136, "lat": 32.238866, "address": "新华路580号展赢大厦F2层", "Field5": null, "Field6": null }, "geometry": { "type": "Point", "coordinates": [ 118.760385813169137, 32.235020083166312 ] } },
{ "type": "Feature", "properties": { "OBJECTID": 35, "name": "踏浪网咖(下马坊店)", "lng": 118.856982, "lat": 32.043116, "address": "中山门大街99-3号君临紫金商业街2楼", "Field5": null, "Field6": null }, "geometry": { "type": "Point", "coordinates": [ 118.845316855913566, 32.039587714449461 ] } },
{ "type": "Feature", "properties": { "OBJECTID": 36, "name": "网鱼网咖·电竞(南京雨花世茂店)", "lng": 118.768913, "lat": 31.976844, "address": "安德门大街52号A栋3层L310L311号", "Field5": null, "Field6": null }, "geometry": { "type": "Point", "coordinates": [ 118.757149897191013, 31.972997995299135 ] } },
{ "type": "Feature", "properties": { "OBJECTID": 37, "name": "网鱼网咖·电竞(建邺龙湖天街店)", "lng": 118.744063, "lat": 31.99317, "address": "江苏省南京市建邺区云龙山路89号龙湖天街3F-19、20号", "Field5": null, "Field6": null }, "geometry": { "type": "Point", "coordinates": [ 118.732263333278539, 31.989552932774664 ] } },
{ "type": "Feature", "properties": { "OBJECTID": 38, "name": "网宏电竞网咖(河西万达店)", "lng": 118.740861, "lat": 32.036472, "address": "江苏省南京市建邺区燕山路81号", "Field5": null, "Field6": null }, "geometry": { "type": "Point", "coordinates": [ 118.729065558680446, 32.032855279662854 ] } },
{ "type": "Feature", "properties": { "OBJECTID": 39, "name": "网鱼网咖·电竞(南京和会街店)", "lng": 118.771839, "lat": 32.083931, "address": "和会街48号", "Field5": null, "Field6": null }, "geometry": { "type": "Point", "coordinates": [ 118.760072033590305, 32.080055986272924 ] } },
{ "type": "Feature", "properties": { "OBJECTID": 40, "name": "红阳电竞(夫子庙店)", "lng": 118.791997, "lat": 32.028572, "address": "建康路2号茂业天地A1座3层F03009X", "Field5": null, "Field6": null }, "geometry": { "type": "Point", "coordinates": [ 118.780377383495889, 32.02436372256826 ] } },
{ "type": "Feature", "properties": { "OBJECTID": 41, "name": "网鱼网咖·电竞(南京浦口澳林广场店)", "lng": 118.705429, "lat": 32.118646, "address": "浦珠北路澳林广场B区3楼", "Field5": null, "Field6": null }, "geometry": { "type": "Point", "coordinates": [ 118.693827938445608, 32.114557987159976 ] } },
{ "type": "Feature", "properties": { "OBJECTID": 42, "name": "网鱼网咖·电竞(南京鼓楼五塘广场店)", "lng": 118.785242, "lat": 32.11768, "address": "幕府东路9号2栋203室", "Field5": null, "Field6": null }, "geometry": { "type": "Point", "coordinates": [ 118.773575535913579, 32.113584352317986 ] } },
{ "type": "Feature", "properties": { "OBJECTID": 43, "name": "网鱼网咖·电竞(南京和燕路店)", "lng": 118.822887, "lat": 32.129637, "address": "幕府山庄社区文浚街农贸市场2幢201室", "Field5": null, "Field6": null }, "geometry": { "type": "Point", "coordinates": [ 118.811305755616374, 32.125521974242403 ] } },
{ "type": "Feature", "properties": { "OBJECTID": 44, "name": "网鱼网咖·电竞(南京谷里店)", "lng": 118.715151, "lat": 31.869225, "address": "江苏省南京市江宁区谷里街道邻里大道52号6幢204号", "Field5": null, "Field6": null }, "geometry": { "type": "Point", "coordinates": [ 118.703499573209598, 31.86523357762071 ] } },
{ "type": "Feature", "properties": { "OBJECTID": 45, "name": "网鱼网咖·电竞(南京江北龙湖天街店)", "lng": 118.703186, "lat": 32.165392, "address": "江苏省南京市浦口区星火路99号江北天街3楼", "Field5": null, "Field6": null }, "geometry": { "type": "Point", "coordinates": [ 118.691583144939656, 32.161279969991185 ] } },
{ "type": "Feature", "properties": { "OBJECTID": 46, "name": "网鱼网咖·电竞(南京天润城地铁站店)", "lng": 118.741219, "lat": 32.156109, "address": "江北新区百润路4号天润城第十一街区26幢101室", "Field5": null, "Field6": null }, "geometry": { "type": "Point", "coordinates": [ 118.729411621001603, 32.15251868634649 ] } },
{ "type": "Feature", "properties": { "OBJECTID": 47, "name": "网鱼网咖·电竞(南京雨花金地店)", "lng": 118.668496, "lat": 31.911987, "address": "古雄街道新湖大道8号金地自在城第三街区18幢221室", "Field5": null, "Field6": null }, "geometry": { "type": "Point", "coordinates": [ 118.656998108894342, 31.907907762426632 ] } },
{ "type": "Feature", "properties": { "OBJECTID": 48, "name": "接代站网吧(火车站店)", "lng": 118.798672, "lat": 32.094712, "address": "龙蟠路101号军人接待站2层", "Field5": null, "Field6": null }, "geometry": { "type": "Point", "coordinates": [ 118.787047641444218, 32.090450661393696 ] } },
{ "type": "Feature", "properties": { "OBJECTID": 49, "name": "Eighteen Old电竞俱乐部(夫子庙店)", "lng": 118.793827, "lat": 32.029661, "address": "健康路3号水平方3楼(夫子庙地铁站4号口步行450米)", "Field5": null, "Field6": null }, "geometry": { "type": "Point", "coordinates": [ 118.7822148616129, 32.025432504182483 ] } },
{ "type": "Feature", "properties": { "OBJECTID": 50, "name": "青春飞扬网咖(玄武区老虎桥宽园店)", "lng": 118.798243, "lat": 32.057712, "address": "新街口街道珠江路老虎桥18号(东南大学旁)", "Field5": null, "Field6": null }, "geometry": { "type": "Point", "coordinates": [ 118.786620113500149, 32.053445298384858 ] } },
{ "type": "Feature", "properties": { "OBJECTID": 51, "name": "网鱼网咖·电竞(上坊店)", "lng": 118.882328, "lat": 31.975453, "address": "东山街道万安北路99号创智park1号楼308室(江宁肚包鸡楼上)", "Field5": null, "Field6": null }, "geometry": { "type": "Point", "coordinates": [ 118.870718460175794, 31.971872009577385 ] } },
{ "type": "Feature", "properties": { "OBJECTID": 52, "name": "宜博电竞馆(澳林广场店)", "lng": 118.705011, "lat": 32.118864, "address": "澳林广场F2-213室（肯德基二楼后门出门正对面）", "Field5": null, "Field6": null }, "geometry": { "type": "Point", "coordinates": [ 118.693412686164734, 32.114770323535183 ] } },
{ "type": "Feature", "properties": { "OBJECTID": 53, "name": "网鱼网咖·电竞(南京鼓楼世茂滨江店)", "lng": 118.73917, "lat": 32.086046, "address": "南通路118号世茂悦港3号楼二层203商铺", "Field5": null, "Field6": null }, "geometry": { "type": "Point", "coordinates": [ 118.727348417852582, 32.082424113636257 ] } },
{ "type": "Feature", "properties": { "OBJECTID": 54, "name": "高达电竞馆", "lng": 118.735112, "lat": 32.135048, "address": "华侨广场北2门旁(长江大桥北地铁站2号口步行160米)", "Field5": null, "Field6": null }, "geometry": { "type": "Point", "coordinates": [ 118.723335730235348, 32.131413841123148 ] } },
{ "type": "Feature", "properties": { "OBJECTID": 55, "name": "踏浪网咖(明发广场店)", "lng": 118.753153, "lat": 32.135075, "address": "滨江大道1号明发滨江新城282栋2楼F2-06", "Field5": null, "Field6": null }, "geometry": { "type": "Point", "coordinates": [ 118.741351303879711, 32.13146892173323 ] } },
{ "type": "Feature", "properties": { "OBJECTID": 56, "name": "踏浪网咖(丁家庄店)", "lng": 118.864322, "lat": 32.118771, "address": "华银路19号1栋二楼", "Field5": null, "Field6": null }, "geometry": { "type": "Point", "coordinates": [ 118.852661834174853, 32.11531498220792 ] } },
{ "type": "Feature", "properties": { "OBJECTID": 57, "name": "网鱼网咖·电竞(弘阳时代中心店)", "lng": 118.728272, "lat": 32.143515, "address": "高新南路旭日爱上城八区02幢201、202、203室", "Field5": null, "Field6": null }, "geometry": { "type": "Point", "coordinates": [ 118.716526335558441, 32.139800614328657 ] } },
{ "type": "Feature", "properties": { "OBJECTID": 58, "name": "踏浪网咖(通淮街店)", "lng": 118.809958, "lat": 31.94284, "address": "通淮街159号", "Field5": null, "Field6": null }, "geometry": { "type": "Point", "coordinates": [ 118.79836752073723, 31.938535541207923 ] } },
{ "type": "Feature", "properties": { "OBJECTID": 59, "name": "网鱼网咖·电竞(明发滨江新城店)", "lng": 118.749805, "lat": 32.138896, "address": "江苏省南京市浦口区滨江大道1号明发滨江新城三期北区326-327栋2楼203号、205号、207号、209号", "Field5": null, "Field6": null }, "geometry": { "type": "Point", "coordinates": [ 118.738000077709202, 32.135308015028187 ] } },
{ "type": "Feature", "properties": { "OBJECTID": 60, "name": "果果电竞(龙池店)", "lng": 118.816041, "lat": 32.324157, "address": "江苏省南京市六合区龙池街道龙池花园20-1号", "Field5": null, "Field6": null }, "geometry": { "type": "Point", "coordinates": [ 118.804414544433087, 32.319963576078386 ] } },
{ "type": "Feature", "properties": { "OBJECTID": 61, "name": "网鱼网咖·电竞(南京玄武六角广场店)", "lng": 118.817197, "lat": 32.087124, "address": "玄武大道6号六角广场F3层", "Field5": null, "Field6": null }, "geometry": { "type": "Point", "coordinates": [ 118.805592597565436, 32.082912247686281 ] } },
{ "type": "Feature", "properties": { "OBJECTID": 62, "name": "踏浪网咖(胜太西路店)", "lng": 118.79403, "lat": 31.949385, "address": "秣陵街道胜太西路168号（近南京航空航天大学）", "Field5": null, "Field6": null }, "geometry": { "type": "Point", "coordinates": [ 118.782393175353192, 31.945127082161182 ] } },
{ "type": "Feature", "properties": { "OBJECTID": 63, "name": "网鱼网咖·电竞(南京托乐嘉店)", "lng": 118.793492, "lat": 31.949431, "address": "将军大道109号越城汇2楼", "Field5": null, "Field6": null }, "geometry": { "type": "Point", "coordinates": [ 118.781852803860971, 31.945178694147344 ] } },
{ "type": "Feature", "properties": { "OBJECTID": 64, "name": "网鱼网咖·电竞(南京华悦荟大华店)", "lng": 118.726767, "lat": 32.124885, "address": "柳洲南路3号大华锦绣华城乐美颂花园卖场综合楼302-2（肯德基旁观光电梯楼上）", "Field5": null, "Field6": null }, "geometry": { "type": "Point", "coordinates": [ 118.715029909778664, 32.121144908875877 ] } },
{ "type": "Feature", "properties": { "OBJECTID": 65, "name": "网鱼网咖·电竞(江南路店)", "lng": 118.803572, "lat": 31.971102, "address": "江苏省南京市江宁区江南路B3栋113室", "Field5": null, "Field6": null }, "geometry": { "type": "Point", "coordinates": [ 118.79197010532944, 31.966793290284446 ] } },
{ "type": "Feature", "properties": { "OBJECTID": 66, "name": "固定网咖(宇飞固定店)", "lng": 118.69099, "lat": 32.184286, "address": "江苏省南京市浦口区高新技术开发区龙泰路裕民家园门口", "Field5": null, "Field6": null }, "geometry": { "type": "Point", "coordinates": [ 118.679427046525902, 32.180077316801977 ] } },
{ "type": "Feature", "properties": { "OBJECTID": 67, "name": "网鱼网咖·电竞(南京虹悦城店)", "lng": 118.771609, "lat": 32.01212, "address": "长虹路439号15幢201室", "Field5": null, "Field6": null }, "geometry": { "type": "Point", "coordinates": [ 118.759884119305156, 32.008242879908934 ] } },
{ "type": "Feature", "properties": { "OBJECTID": 68, "name": "网鱼网咖·电竞(南京浦口白马广场店)", "lng": 118.637567, "lat": 32.082384, "address": "狮山路白马生活广场2楼217218-2号", "Field5": null, "Field6": null }, "geometry": { "type": "Point", "coordinates": [ 118.625939653126281, 32.078889483082058 ] } },
{ "type": "Feature", "properties": { "OBJECTID": 69, "name": "踏浪网咖(金尧路店)", "lng": 118.877354, "lat": 32.127282, "address": "金尧路2号06幢101、102室", "Field5": null, "Field6": null }, "geometry": { "type": "Point", "coordinates": [ 118.865734801982541, 32.123795041506497 ] } },
{ "type": "Feature", "properties": { "OBJECTID": 70, "name": "悟空网吧(仙林大道万达茂店)", "lng": 118.996483, "lat": 32.128663, "address": "广志路24号1幢104室", "Field5": null, "Field6": null }, "geometry": { "type": "Point", "coordinates": [ 118.984714688720217, 32.125070235531972 ] } },
{ "type": "Feature", "properties": { "OBJECTID": 71, "name": "网鱼网咖·电竞(南京岱山中路店)", "lng": 118.701621, "lat": 31.948198, "address": "岱山中路6号312室", "Field5": null, "Field6": null }, "geometry": { "type": "Point", "coordinates": [ 118.690028352025365, 31.944015556208381 ] } },
{ "type": "Feature", "properties": { "OBJECTID": 72, "name": "西柚兔网咖(江苏南京南医大经贸店)", "lng": 118.896174, "lat": 31.938677, "address": "江苏省南京市江宁区经贸学院路8号保利樾广场7栋222室", "Field5": null, "Field6": null }, "geometry": { "type": "Point", "coordinates": [ 118.884643483196257, 31.934865471116115 ] } },
{ "type": "Feature", "properties": { "OBJECTID": 73, "name": "惠好网咖", "lng": 118.978328, "lat": 31.878594, "address": "江苏省南京市江宁区瑞泽路5-10号", "Field5": null, "Field6": null }, "geometry": { "type": "Point", "coordinates": [ 118.96663405468378, 31.875010234984007 ] } },
{ "type": "Feature", "properties": { "OBJECTID": 74, "name": "大热网咖(龙飞路店)", "lng": 118.655913, "lat": 31.929763, "address": "江苏省南京市雨花台区龙飞路6号", "Field5": null, "Field6": null }, "geometry": { "type": "Point", "coordinates": [ 118.644362671451773, 31.925925291546239 ] } },
{ "type": "Feature", "properties": { "OBJECTID": 75, "name": "方舟电竞网咖棋牌", "lng": 119.068473, "lat": 32.182083, "address": "府前路8号", "Field5": null, "Field6": null }, "geometry": { "type": "Point", "coordinates": [ 119.056555854457727, 32.177841890632884 ] } },
{ "type": "Feature", "properties": { "OBJECTID": 76, "name": "万络网咖福田雅居店", "lng": 118.966712, "lat": 31.74219, "address": "经济开发区福田路福田雅居二期10栋106室", "Field5": null, "Field6": null }, "geometry": { "type": "Point", "coordinates": [ 118.95508721241174, 31.738464359637749 ] } },
{ "type": "Feature", "properties": { "OBJECTID": 77, "name": "好友网咖(建兴街店)", "lng": 118.842075, "lat": 31.840374, "address": "建兴街49-118号", "Field5": null, "Field6": null }, "geometry": { "type": "Point", "coordinates": [ 118.830432682952136, 31.836557253067145 ] } },
{ "type": "Feature", "properties": { "OBJECTID": 78, "name": "一统金互联网(零速度店)", "lng": 118.726775, "lat": 32.213069, "address": "盘新路76号盘锦花园", "Field5": null, "Field6": null }, "geometry": { "type": "Point", "coordinates": [ 118.715001391280467, 32.20933616790736 ] } },
{ "type": "Feature", "properties": { "OBJECTID": 79, "name": "荣耀网咖(桥林店)", "lng": 118.542094, "lat": 31.95171, "address": "桥林蒙雨家园15栋", "Field5": null, "Field6": null }, "geometry": { "type": "Point", "coordinates": [ 118.530481655665611, 31.94770577246317 ] } },
{ "type": "Feature", "properties": { "OBJECTID": 80, "name": "壹号电竞(锦上路店)", "lng": 118.62829, "lat": 32.055686, "address": "锦上路1号02幢207室至212室", "Field5": null, "Field6": null }, "geometry": { "type": "Point", "coordinates": [ 118.61666840688477, 32.052253414673757 ] } },
{ "type": "Feature", "properties": { "OBJECTID": 81, "name": "天赐网络(禄口大街店)", "lng": 118.871131, "lat": 31.781696, "address": "白云路与茅亭路交叉口东南100米", "Field5": null, "Field6": null }, "geometry": { "type": "Point", "coordinates": [ 118.859523103658447, 31.778173675921561 ] } },
{ "type": "Feature", "properties": { "OBJECTID": 82, "name": "新珍光FPS电竞馆(仙林大道万达茂店)", "lng": 118.995547, "lat": 32.128812, "address": "广志路22-90-91号百家超市旁", "Field5": null, "Field6": null }, "geometry": { "type": "Point", "coordinates": [ 118.983779791500965, 32.12523038166367 ] } },
{ "type": "Feature", "properties": { "OBJECTID": 83, "name": "奇新网咖", "lng": 118.947896, "lat": 31.937646, "address": "江苏省南京市江宁区龙堰路518号", "Field5": null, "Field6": null }, "geometry": { "type": "Point", "coordinates": [ 118.936380190695999, 31.933652282753659 ] } },
{ "type": "Feature", "properties": { "OBJECTID": 84, "name": "踏浪网咖(热河南路店)", "lng": 118.74894, "lat": 32.090111, "address": "热河南路19-25号", "Field5": null, "Field6": null }, "geometry": { "type": "Point", "coordinates": [ 118.737106268149205, 32.086507081734489 ] } },
{ "type": "Feature", "properties": { "OBJECTID": 85, "name": "启浪电竞·网咖·网吧(百家湖大街店)", "lng": 118.810447, "lat": 31.941296, "address": "利源中路88号高尔夫国际花园21幢105、106室", "Field5": null, "Field6": null }, "geometry": { "type": "Point", "coordinates": [ 118.798858087838354, 31.936993991161028 ] } },
{ "type": "Feature", "properties": { "OBJECTID": 86, "name": "网鱼网咖·电竞(南京新街口新华大厦店)", "lng": 118.789766, "lat": 32.050459, "address": "江苏省南京市鼓楼区中山路55号3楼新华大厦裙楼3F店铺编号F305", "Field5": null, "Field6": null }, "geometry": { "type": "Point", "coordinates": [ 118.778113853500955, 32.046278380592092 ] } },
{ "type": "Feature", "properties": { "OBJECTID": 87, "name": "电竞网咖(润发路南方时代广场店)", "lng": 118.885216, "lat": 32.00363, "address": "江苏省南京市江宁区润发路9号南方时代广场F1", "Field5": null, "Field6": null }, "geometry": { "type": "Point", "coordinates": [ 118.873644439122103, 32.000023392299553 ] } },
{ "type": "Feature", "properties": { "OBJECTID": 88, "name": "网鱼网咖·电竞(南京苏尧广场店)", "lng": 118.860156, "lat": 31.959151, "address": "东新南路15号苏尧广场二楼", "Field5": null, "Field6": null }, "geometry": { "type": "Point", "coordinates": [ 118.848476525220093, 31.955626915692971 ] } },
{ "type": "Feature", "properties": { "OBJECTID": 89, "name": "网鱼网咖·电竞(南京六合大厂店)", "lng": 118.770548, "lat": 32.237107, "address": "大厂长冲街88号苏宁易购三楼", "Field5": null, "Field6": null }, "geometry": { "type": "Point", "coordinates": [ 118.758788208545511, 32.233288486067252 ] } },
{ "type": "Feature", "properties": { "OBJECTID": 90, "name": "承龙网咖", "lng": 118.845983, "lat": 31.845217, "address": "江苏省南京市江宁区正方路1号", "Field5": null, "Field6": null }, "geometry": { "type": "Point", "coordinates": [ 118.834332171578026, 31.841476198776007 ] } },
{ "type": "Feature", "properties": { "OBJECTID": 91, "name": "炫风电竞网咖(万达茂店)", "lng": 118.995876, "lat": 32.12878, "address": "广志路万达茂米兰商业街2楼132-133室（天猫超市对面）", "Field5": null, "Field6": null }, "geometry": { "type": "Point", "coordinates": [ 118.984108388020402, 32.125194557190234 ] } },
{ "type": "Feature", "properties": { "OBJECTID": 92, "name": "狂浪网咖桌球俱乐部(恒通中心·新尧新城店)", "lng": 118.889622, "lat": 32.150986, "address": "恒通大道50-8号", "Field5": null, "Field6": null }, "geometry": { "type": "Point", "coordinates": [ 118.878059704408813, 32.147341758346634 ] } },
{ "type": "Feature", "properties": { "OBJECTID": 93, "name": "仑夏电竞网咖", "lng": 118.849819, "lat": 32.332572, "address": "江苏省南京市六合区文棠路11-1号", "Field5": null, "Field6": null }, "geometry": { "type": "Point", "coordinates": [ 118.838119389191235, 32.328983605081163 ] } },
{ "type": "Feature", "properties": { "OBJECTID": 94, "name": "中国无线谷·南京未来网络小镇", "lng": 118.8281, "lat": 31.877261, "address": "南京市江宁区秣周路中国·江宁无线谷", "Field5": null, "Field6": null }, "geometry": { "type": "Point", "coordinates": [ 118.816522726794062, 31.873179037816261 ] } },
{ "type": "Feature", "properties": { "OBJECTID": 95, "name": "洲联网咖", "lng": 118.856175, "lat": 32.02358, "address": "光华路华盛园03-105号", "Field5": null, "Field6": null }, "geometry": { "type": "Point", "coordinates": [ 118.844527032867632, 32.020042405682368 ] } },
{ "type": "Feature", "properties": { "OBJECTID": 96, "name": "一网打进电竞馆(南京义乌小商品城店)", "lng": 118.884862, "lat": 31.94536, "address": "天元东路388号南京义乌小商品城A区2楼", "Field5": null, "Field6": null }, "geometry": { "type": "Point", "coordinates": [ 118.873262084499189, 31.941736456129661 ] } },
{ "type": "Feature", "properties": { "OBJECTID": 97, "name": "Hydon X黑洞电竞(吾悦广场南京建邺店)", "lng": 118.742436, "lat": 32.04328, "address": "燕山路吾悦广场2F-2019-2021号商铺", "Field5": null, "Field6": null }, "geometry": { "type": "Point", "coordinates": [ 118.730629990569312, 32.039669263354703 ] } },
{ "type": "Feature", "properties": { "OBJECTID": 98, "name": "中录时空网咖(金尧路店)", "lng": 118.877718, "lat": 32.127445, "address": "金尧路2号艺郡临枫小区5幢107-108室", "Field5": null, "Field6": null }, "geometry": { "type": "Point", "coordinates": [ 118.866100400650041, 32.123954867980544 ] } },
{ "type": "Feature", "properties": { "OBJECTID": 99, "name": "铁幕网咖(长盛店)", "lng": 118.693441, "lat": 31.947653, "address": "天保桥路7-14号", "Field5": null, "Field6": null }, "geometry": { "type": "Point", "coordinates": [ 118.681888278697159, 31.943402807643118 ] } },
{ "type": "Feature", "properties": { "OBJECTID": 100, "name": "宜博电竞馆(通济街店)", "lng": 119.03472, "lat": 31.663247, "address": "交通路通济街广场5幢2楼", "Field5": null, "Field6": null }, "geometry": { "type": "Point", "coordinates": [ 119.023018414273153, 31.658855295205271 ] } },
{ "type": "Feature", "properties": { "OBJECTID": 101, "name": "心爱网吧", "lng": 118.822444, "lat": 32.038234, "address": "瑞金路35号", "Field5": null, "Field6": null }, "geometry": { "type": "Point", "coordinates": [ 118.810861154770862, 32.034089705324334 ] } },
{ "type": "Feature", "properties": { "OBJECTID": 102, "name": "海王星网咖", "lng": 118.859857, "lat": 31.777999, "address": "南京市江宁区来凤路百利华府-三期西南侧约100米", "Field5": null, "Field6": null }, "geometry": { "type": "Point", "coordinates": [ 118.848232715545606, 31.774447073866785 ] } },
{ "type": "Feature", "properties": { "OBJECTID": 103, "name": "网鱼网咖(天元路金宝店)", "lng": 118.862174, "lat": 31.94152, "address": "莱茵达路288号金宝天元路商业广场31-2-3区江宁高新园", "Field5": null, "Field6": null }, "geometry": { "type": "Point", "coordinates": [ 118.850502280024529, 31.938007090611496 ] } },
{ "type": "Feature", "properties": { "OBJECTID": 104, "name": "友情网咖(红枫路小吃街店)", "lng": 118.951602, "lat": 32.14128, "address": "江苏省南京市栖霞区红枫街20号", "Field5": null, "Field6": null }, "geometry": { "type": "Point", "coordinates": [ 118.940072675758515, 32.137397878923217 ] } },
{ "type": "Feature", "properties": { "OBJECTID": 105, "name": "踏浪网咖(新街口店)", "lng": 118.790892, "lat": 32.043862, "address": "淮海路2号三层", "Field5": null, "Field6": null }, "geometry": { "type": "Point", "coordinates": [ 118.779252616038391, 32.039667099531364 ] } },
{ "type": "Feature", "properties": { "OBJECTID": 106, "name": "Eighteen Old电竞俱乐部(城北万象汇店)", "lng": 118.8393, "lat": 32.125848, "address": "江苏省南京市栖霞区燕子矶街道城北万象汇A馆1楼(正门特斯拉旁)", "Field5": null, "Field6": null }, "geometry": { "type": "Point", "coordinates": [ 118.827674631339505, 32.12204725773082 ] } },
{ "type": "Feature", "properties": { "OBJECTID": 107, "name": "网鱼网咖·电竞(竹山路店)", "lng": 118.854622, "lat": 31.931583, "address": "潭桥商业中心508-7号", "Field5": null, "Field6": null }, "geometry": { "type": "Point", "coordinates": [ 118.842960384570716, 31.92799926199325 ] } },
{ "type": "Feature", "properties": { "OBJECTID": 108, "name": "Eighteen Old电竞俱乐部(江宁金鹰店)", "lng": 118.827406, "lat": 31.938646, "address": "双龙大道1688号金鹰国际购物中心2层（小氧医美旁", "Field5": null, "Field6": null }, "geometry": { "type": "Point", "coordinates": [ 118.815802220541755, 31.934558377695389 ] } },
{ "type": "Feature", "properties": { "OBJECTID": 109, "name": "网鱼网咖·电竞(八里路店)", "lng": 118.614626, "lat": 32.075496, "address": "八里美好生活广场1号楼2楼212室", "Field5": null, "Field6": null }, "geometry": { "type": "Point", "coordinates": [ 118.603017318271554, 32.072007056309225 ] } },
{ "type": "Feature", "properties": { "OBJECTID": 110, "name": "网鱼电竞(东城汇店)", "lng": 118.91388, "lat": 32.10366, "address": "南京市栖霞区仙林街道文苑路8号东城汇B座三楼(麦当劳旁电梯上三楼)", "Field5": null, "Field6": null }, "geometry": { "type": "Point", "coordinates": [ 118.902427189524374, 32.099606459313179 ] } },
{ "type": "Feature", "properties": { "OBJECTID": 111, "name": "网鱼网咖·电竞(光华路海福巷店)", "lng": 118.856223, "lat": 32.023575, "address": "光华路华盛园小区3幢105-106", "Field5": null, "Field6": null }, "geometry": { "type": "Point", "coordinates": [ 118.844575007168785, 32.020037950812345 ] } },
{ "type": "Feature", "properties": { "OBJECTID": 112, "name": "星链电竞(夫子庙店)", "lng": 118.792844, "lat": 32.028652, "address": "江苏省南京市秦淮区教敷营40号", "Field5": null, "Field6": null }, "geometry": { "type": "Point", "coordinates": [ 118.78122822477313, 32.024434021342934 ] } },
{ "type": "Feature", "properties": { "OBJECTID": 113, "name": "黑森林网咖", "lng": 118.943546, "lat": 32.430355, "address": "南京市六合区市场东路台尚青龙花园南侧约80米", "Field5": null, "Field6": null }, "geometry": { "type": "Point", "coordinates": [ 118.932004994102101, 32.426358124893234 ] } },
{ "type": "Feature", "properties": { "OBJECTID": 114, "name": "网鱼网咖·电竞(万福路店)", "lng": 118.883568, "lat": 32.003568, "address": "南京市江宁区万福路觅秀东园", "Field5": null, "Field6": null }, "geometry": { "type": "Point", "coordinates": [ 118.871987706006578, 31.999984292722097 ] } },
{ "type": "Feature", "properties": { "OBJECTID": 115, "name": "踏浪网咖(清凉门店)", "lng": 118.759262, "lat": 32.052126, "address": "凤凰街道清凉门大街8号7-108室南京银行清凉门支行旁边", "Field5": null, "Field6": null }, "geometry": { "type": "Point", "coordinates": [ 118.747455937764727, 32.0484391374073 ] } },
{ "type": "Feature", "properties": { "OBJECTID": 116, "name": "皇码网咖", "lng": 118.875124, "lat": 31.330465, "address": "江苏省南京市高淳区淳中路36-2号", "Field5": null, "Field6": null }, "geometry": { "type": "Point", "coordinates": [ 118.863547789830491, 31.326958718991154 ] } },
{ "type": "Feature", "properties": { "OBJECTID": 117, "name": "非文网吧(进取村店)", "lng": 118.849183, "lat": 32.130007, "address": "江苏省南京市栖霞区迈尧路沁苑山庄151-26号", "Field5": null, "Field6": null }, "geometry": { "type": "Point", "coordinates": [ 118.837534516832548, 32.12639368970288 ] } },
{ "type": "Feature", "properties": { "OBJECTID": 118, "name": "东骏网咖", "lng": 118.939965, "lat": 32.331822, "address": "江苏省南京市六合区瑞成路9号", "Field5": null, "Field6": null }, "geometry": { "type": "Point", "coordinates": [ 118.928456991228359, 32.327787716264886 ] } },
{ "type": "Feature", "properties": { "OBJECTID": 119, "name": "乐动力江宁国际电竞中心", "lng": 118.901399, "lat": 31.915304, "address": "南京市江宁区格致路江宁体育中心", "Field5": null, "Field6": null }, "geometry": { "type": "Point", "coordinates": [ 118.889921882684405, 31.911399778598032 ] } },
{ "type": "Feature", "properties": { "OBJECTID": 120, "name": "满江红网咖(中华路店)", "lng": 118.791256, "lat": 32.030685, "address": "中华路156号2层", "Field5": null, "Field6": null }, "geometry": { "type": "Point", "coordinates": [ 118.779631291600381, 32.026485753874532 ] } },
{ "type": "Feature", "properties": { "OBJECTID": 121, "name": "南京焦点网咖", "lng": 119.052663, "lat": 31.657495, "address": "江苏省南京市溧水区秦淮路301号顾家商业广场1栋3层", "Field5": null, "Field6": null }, "geometry": { "type": "Point", "coordinates": [ 119.040919596223475, 31.653009231957725 ] } },
{ "type": "Feature", "properties": { "OBJECTID": 122, "name": "永欣电竞网咖(永欣商业中心店)", "lng": 118.868869, "lat": 31.771254, "address": "江苏省南京市江宁区正阳路3号牡丹苑6栋", "Field5": null, "Field6": null }, "geometry": { "type": "Point", "coordinates": [ 118.857256432533376, 31.767734454777585 ] } },
{ "type": "Feature", "properties": { "OBJECTID": 123, "name": "泰坦网咖", "lng": 118.819089, "lat": 31.966124, "address": "东山街道中驰商都中驰路93号", "Field5": null, "Field6": null }, "geometry": { "type": "Point", "coordinates": [ 118.807493102064285, 31.96190819419418 ] } },
{ "type": "Feature", "properties": { "OBJECTID": 124, "name": "煦鹏网咖(电竞酒店)", "lng": 118.790128, "lat": 31.77528, "address": "江苏省南京市江宁区纬一路88号", "Field5": null, "Field6": null }, "geometry": { "type": "Point", "coordinates": [ 118.778526236081802, 31.771043884181086 ] } },
{ "type": "Feature", "properties": { "OBJECTID": 125, "name": "弘幻蓝天网咖(永欣商业中心店)", "lng": 118.870372, "lat": 31.772687, "address": "江苏省南京市江宁区永欣大道26号", "Field5": null, "Field6": null }, "geometry": { "type": "Point", "coordinates": [ 118.858763394214293, 31.769165494047826 ] } },
{ "type": "Feature", "properties": { "OBJECTID": 126, "name": "腾宇网咖服务中心", "lng": 118.725455, "lat": 32.170591, "address": "江苏省南京市浦口区泰冯路92号", "Field5": null, "Field6": null }, "geometry": { "type": "Point", "coordinates": [ 118.713700671786441, 32.166833847334871 ] } },
{ "type": "Feature", "properties": { "OBJECTID": 127, "name": "王者归来电竞馆(南方时代广场店)", "lng": 118.885518, "lat": 32.00355, "address": "润发路9号南方时代广场3层", "Field5": null, "Field6": null }, "geometry": { "type": "Point", "coordinates": [ 118.87394802522526, 31.999938983870024 ] } },
{ "type": "Feature", "properties": { "OBJECTID": 128, "name": "巅峰电竞(太阳城店)", "lng": 118.832136, "lat": 31.933348, "address": "双龙大道1539号世纪太阳城国际购物中心C馆3L电梯口", "Field5": null, "Field6": null }, "geometry": { "type": "Point", "coordinates": [ 118.82052496335595, 31.929351802472134 ] } },
{ "type": "Feature", "properties": { "OBJECTID": 129, "name": "义结金兰网咖", "lng": 118.821764, "lat": 31.950509, "address": "江苏省南京市江宁区胜太路88-23号", "Field5": null, "Field6": null }, "geometry": { "type": "Point", "coordinates": [ 118.810163959101018, 31.946327002376357 ] } },
{ "type": "Feature", "properties": { "OBJECTID": 130, "name": "落桥印象红色网格驿站", "lng": 118.697697, "lat": 32.224617, "address": "南京市浦口区管落路与跃进东路交叉路口东南侧", "Field5": null, "Field6": null }, "geometry": { "type": "Point", "coordinates": [ 118.686116777497247, 32.220455099229149 ] } },
{ "type": "Feature", "properties": { "OBJECTID": 131, "name": "天雨电竞", "lng": 118.822059, "lat": 32.338408, "address": "江苏省南京市六合区龙池街道华欧大道1号长河郡苑23幢110号", "Field5": null, "Field6": null }, "geometry": { "type": "Point", "coordinates": [ 118.810434504616026, 32.334296198251991 ] } },
{ "type": "Feature", "properties": { "OBJECTID": 132, "name": "踏浪网咖(总部服务中心)", "lng": 118.74736, "lat": 32.034451, "address": "江苏省南京市建邺区集庆门大街200号恒盈名居3楼", "Field5": null, "Field6": null }, "geometry": { "type": "Point", "coordinates": [ 118.735557150180867, 32.030844994575908 ] } },
{ "type": "Feature", "properties": { "OBJECTID": 133, "name": "HF电竞", "lng": 118.714259, "lat": 31.971115, "address": "南京市建邺区中和路东南青年汇(中和店)", "Field5": null, "Field6": null }, "geometry": { "type": "Point", "coordinates": [ 118.7025875667631, 31.967126338032635 ] } },
{ "type": "Feature", "properties": { "OBJECTID": 134, "name": "零速度网咖", "lng": 118.726803, "lat": 32.213097, "address": "盘新路76号盘锦花园", "Field5": null, "Field6": null }, "geometry": { "type": "Point", "coordinates": [ 118.715029248192948, 32.20936459142964 ] } },
{ "type": "Feature", "properties": { "OBJECTID": 135, "name": "老司机网咖(68生活广场店)", "lng": 118.721356, "lat": 31.978408, "address": "友谊路198号68生活广场F1层", "Field5": null, "Field6": null }, "geometry": { "type": "Point", "coordinates": [ 118.709642390551949, 31.974543544927268 ] } },
{ "type": "Feature", "properties": { "OBJECTID": 136, "name": "零度网咖", "lng": 118.884396, "lat": 31.942505, "address": "学府世家10幢", "Field5": null, "Field6": null }, "geometry": { "type": "Point", "coordinates": [ 118.872795583077234, 31.938887818968624 ] } },
{ "type": "Feature", "properties": { "OBJECTID": 137, "name": "奇趣电竞(轻舞店)", "lng": 118.808827, "lat": 31.944215, "address": "通淮街99号（肯定观美酒店旁楼梯上二楼）", "Field5": null, "Field6": null }, "geometry": { "type": "Point", "coordinates": [ 118.797234441171312, 31.939905701982781 ] } },
{ "type": "Feature", "properties": { "OBJECTID": 138, "name": "鱼网网咖(南京汪海国际大酒店店)", "lng": 118.636749, "lat": 31.903466, "address": "江苏省南京市雨花台区梅山街道雄风路486号汪海大厦2楼", "Field5": null, "Field6": null }, "geometry": { "type": "Point", "coordinates": [ 118.625173076832937, 31.899949669565533 ] } },
{ "type": "Feature", "properties": { "OBJECTID": 139, "name": "乐远(珍珠南路店)", "lng": 119.039144, "lat": 31.645526, "address": "南京市溧水区珍珠南路东方新天地商业街", "Field5": null, "Field6": null }, "geometry": { "type": "Point", "coordinates": [ 119.027438356432526, 31.641081480413668 ] } },
{ "type": "Feature", "properties": { "OBJECTID": 140, "name": "极度空间网咖", "lng": 118.849459, "lat": 32.009615, "address": "江苏省南京市秦淮区光华路街道西桐路10号银龙景苑2幢10-21号", "Field5": null, "Field6": null }, "geometry": { "type": "Point", "coordinates": [ 118.837821128754868, 32.005980190336729 ] } },
{ "type": "Feature", "properties": { "OBJECTID": 141, "name": "好运智竞馆(雀潮荟万寿店)", "lng": 118.847393, "lat": 32.126271, "address": "南京市栖霞区进取村154号-22号", "Field5": null, "Field6": null }, "geometry": { "type": "Point", "coordinates": [ 118.835746976487428, 32.122625994803293 ] } },
{ "type": "Feature", "properties": { "OBJECTID": 142, "name": "战地风云", "lng": 118.860316, "lat": 31.857266, "address": "南京市江宁区宋邑路1号华谊兄弟(南京)电影小镇", "Field5": null, "Field6": null }, "geometry": { "type": "Point", "coordinates": [ 118.848656653196059, 31.853723951779649 ] } },
{ "type": "Feature", "properties": { "OBJECTID": 143, "name": "易动未来E-SportsFuture(1914店)", "lng": 118.751558, "lat": 32.142494, "address": "沿江街道江山路19号老浦口1914商业街1号楼二层", "Field5": null, "Field6": null }, "geometry": { "type": "Point", "coordinates": [ 118.739752826975447, 32.138898588880409 ] } }
]
}
