{
"type": "FeatureCollection",
"name": "自助餐",
"crs": { "type": "name", "properties": { "name": "urn:ogc:def:crs:OGC:1.3:CRS84" } },
"xy_coordinate_resolution": 1e-15,
"features": [
{ "type": "Feature", "properties": { "OBJECTID": 1, "name": "欢乐牧场自助餐(金轮新天地店)", "lng": 118.786815, "lat": 32.048737, "address": "汉中路8号金轮新天地购物中心F5层" }, "geometry": { "type": "Point", "coordinates": [ 118.775149470800798, 32.044598509551896 ] } },
{ "type": "Feature", "properties": { "OBJECTID": 2, "name": "欢乐牧场自助餐(鼓楼吾悦广场店)", "lng": 118.783161, "lat": 32.073562, "address": "吾悦广场四楼" }, "geometry": { "type": "Point", "coordinates": [ 118.771456777785872, 32.069482954608191 ] } },
{ "type": "Feature", "properties": { "OBJECTID": 3, "name": "晶丽海鲜自助餐厅(新街口IFCX店)", "lng": 118.789436, "lat": 32.047089, "address": "汉中路1号国际金融中心-IFCX6楼" }, "geometry": { "type": "Point", "coordinates": [ 118.777785875559289, 32.042912973416882 ] } },
{ "type": "Feature", "properties": { "OBJECTID": 4, "name": "干盛隆·自助百汇(仙林金鹰店)", "lng": 118.933333, "lat": 32.107674, "address": "仙林金鹰湖滨天地A区F馆1层6-205" }, "geometry": { "type": "Point", "coordinates": [ 118.921885363642431, 32.103560719100443 ] } },
{ "type": "Feature", "properties": { "OBJECTID": 5, "name": "禾牛社·和牛寿喜烧自助火锅(水游城店)", "lng": 118.79172, "lat": 32.030096, "address": "洪武路街道夫子庙建康路1号水游城4楼(横店电影院哥老官隔壁)" }, "geometry": { "type": "Point", "coordinates": [ 118.780097955190698, 32.025891092866352 ] } },
{ "type": "Feature", "properties": { "OBJECTID": 6, "name": "金滏山火锅海鲜自助烤肉(21世纪太阳城店)", "lng": 118.829627, "lat": 31.933629, "address": "21世纪太阳城A区5楼（万达影城隔壁）" }, "geometry": { "type": "Point", "coordinates": [ 118.818022466917213, 31.929583362590293 ] } },
{ "type": "Feature", "properties": { "OBJECTID": 7, "name": "苏格里岛自助海鲜烤肉火锅(江宁万达店)", "lng": 118.849977, "lat": 31.95795, "address": "江宁万达广场4楼4012（2号门上4楼）" }, "geometry": { "type": "Point", "coordinates": [ 118.838305480142893, 31.954301526282524 ] } },
{ "type": "Feature", "properties": { "OBJECTID": 8, "name": "星伦多自助料理(艾尚天地店)", "lng": 118.791424, "lat": 32.053124, "address": "中山路100号艾尚天地A座5层" }, "geometry": { "type": "Point", "coordinates": [ 118.779777126057994, 32.048922098895723 ] } },
{ "type": "Feature", "properties": { "OBJECTID": 9, "name": "海炽烤肉海鲜自助(溧水店)", "lng": 119.026182, "lat": 31.680627, "address": "宝塔北路16号世纪缘酒店一楼" }, "geometry": { "type": "Point", "coordinates": [ 119.014464558496016, 31.676375426472205 ] } },
{ "type": "Feature", "properties": { "OBJECTID": 10, "name": "水浒烤肉·和牛自助(丁家庄形象店)", "lng": 118.859108, "lat": 32.118208, "address": "凤霞路丁家庄悦拾光二楼（肯德基楼上）" }, "geometry": { "type": "Point", "coordinates": [ 118.847444018700415, 32.114718828459004 ] } },
{ "type": "Feature", "properties": { "OBJECTID": 11, "name": "素满香·素食自助餐(建邺万达店)", "lng": 118.743285, "lat": 32.036632, "address": "福园街135号" }, "geometry": { "type": "Point", "coordinates": [ 118.731484431400929, 32.033023862104237 ] } },
{ "type": "Feature", "properties": { "OBJECTID": 12, "name": "海宴和清·海鲜放题自助", "lng": 118.756308, "lat": 32.018157, "address": "怡康街29号01幢1-2层" }, "geometry": { "type": "Point", "coordinates": [ 118.744522839058277, 32.014500399879488 ] } },
{ "type": "Feature", "properties": { "OBJECTID": 13, "name": "耘牛宴·现切鲜牛肉自助火锅(科巷店)", "lng": 118.803875, "lat": 32.045682, "address": "中山东路300号长发中心CFC商业广场" }, "geometry": { "type": "Point", "coordinates": [ 118.792281077102359, 32.041393785223427 ] } },
{ "type": "Feature", "properties": { "OBJECTID": 14, "name": "欢乐牧场自助餐(游坊城店)", "lng": 118.725656, "lat": 31.972433, "address": "友谊路36号游坊城2楼" }, "geometry": { "type": "Point", "coordinates": [ 118.713911013861207, 31.968634820147123 ] } },
{ "type": "Feature", "properties": { "OBJECTID": 15, "name": "李记鲜切牛肉自助火锅(紫薇花园店)", "lng": 118.825618, "lat": 31.973956, "address": "金盛路60号" }, "geometry": { "type": "Point", "coordinates": [ 118.814015632421146, 31.969844437860143 ] } },
{ "type": "Feature", "properties": { "OBJECTID": 16, "name": "欧罗浮海鲜自助餐厅(龙蟠汇店)", "lng": 118.807748, "lat": 32.028379, "address": "龙蟠中路龙蟠汇购物中心4层" }, "geometry": { "type": "Point", "coordinates": [ 118.796177801044607, 32.024093980825718 ] } },
{ "type": "Feature", "properties": { "OBJECTID": 17, "name": "韩盛·盛江山自助料理(百家湖1912黑金店)", "lng": 118.824596, "lat": 31.937413, "address": "秣陵街道双龙大道1680号百家湖1912(台北乐趴KTV楼下)" }, "geometry": { "type": "Point", "coordinates": [ 118.812999607696426, 31.93327561001567 ] } },
{ "type": "Feature", "properties": { "OBJECTID": 18, "name": "晶丽海鲜自助餐厅(百家湖1912店)", "lng": 118.823577, "lat": 31.938091, "address": "佳湖东路百家湖1912街区16号楼4楼" }, "geometry": { "type": "Point", "coordinates": [ 118.811981996444459, 31.933936651094534 ] } },
{ "type": "Feature", "properties": { "OBJECTID": 19, "name": "苏客(新街口店)", "lng": 118.793146, "lat": 32.045007, "address": "洪武路50号" }, "geometry": { "type": "Point", "coordinates": [ 118.781515872371116, 32.040785552554418 ] } },
{ "type": "Feature", "properties": { "OBJECTID": 20, "name": "韩太妃韩式自助烤肉(新街口店)", "lng": 118.794119, "lat": 32.043723, "address": "香港城美食广场西门入口左手边第一家" }, "geometry": { "type": "Point", "coordinates": [ 118.782494567637627, 32.039491376718843 ] } },
{ "type": "Feature", "properties": { "OBJECTID": 21, "name": "晶丽海鲜自助餐厅(东郊国宾馆店)", "lng": 118.853758, "lat": 32.064103, "address": "紫金山路5号东郊国宾馆紫熙楼1楼" }, "geometry": { "type": "Point", "coordinates": [ 118.84207470262335, 32.060535482174757 ] } },
{ "type": "Feature", "properties": { "OBJECTID": 22, "name": "渔膳(仁恒江湾城店)", "lng": 118.71637, "lat": 31.998279, "address": "乐山路209号仁恒江湾新天地AL002号" }, "geometry": { "type": "Point", "coordinates": [ 118.704706826967666, 31.994339416583085 ] } },
{ "type": "Feature", "properties": { "OBJECTID": 23, "name": "宴誉恋海·活鲜刺身美学自助(河西中央店)", "lng": 118.739281, "lat": 32.01317, "address": "江东中路237号雨润中央商场4楼" }, "geometry": { "type": "Point", "coordinates": [ 118.727501787837539, 32.00954214177235 ] } },
{ "type": "Feature", "properties": { "OBJECTID": 24, "name": "韩盛·盛江山自助料理(新尧金地广场店)", "lng": 118.895732, "lat": 32.130897, "address": "尧佳路新尧金地广场四层" }, "geometry": { "type": "Point", "coordinates": [ 118.884212049538561, 32.127144141691311 ] } },
{ "type": "Feature", "properties": { "OBJECTID": 25, "name": "芝小官毛肚火锅烤肉自助(南京鼓楼区新城市广场店)", "lng": 118.747773, "lat": 32.062102, "address": "草场门大街新城市广场2楼A05号（服务台楼上）" }, "geometry": { "type": "Point", "coordinates": [ 118.735941972644127, 32.058494703294841 ] } },
{ "type": "Feature", "properties": { "OBJECTID": 26, "name": "星伦多自助料理(江宁龙湖店)", "lng": 118.851162, "lat": 31.944154, "address": "潭园西路199号南京龙湾天街4楼36号" }, "geometry": { "type": "Point", "coordinates": [ 118.839493313216067, 31.940521890909686 ] } },
{ "type": "Feature", "properties": { "OBJECTID": 27, "name": "禾牛社·和牛寿喜烧自助火锅(东方福来德店)", "lng": 118.789743, "lat": 32.046773, "address": "中山南路东方福来德6楼" }, "geometry": { "type": "Point", "coordinates": [ 118.778094762766202, 32.04259285864746 ] } },
{ "type": "Feature", "properties": { "OBJECTID": 28, "name": "星伦多自助料理(仙林万达茂店)", "lng": 118.997479, "lat": 32.127889, "address": "西岗街道仙林大道181号万达茂3楼3053B号商铺" }, "geometry": { "type": "Point", "coordinates": [ 118.985709531625304, 32.124283361263835 ] } },
{ "type": "Feature", "properties": { "OBJECTID": 29, "name": "浩扬·东北小炉子自助烧烤(江艺路店)", "lng": 118.751166, "lat": 31.965303, "address": "江艺路9-10号" }, "geometry": { "type": "Point", "coordinates": [ 118.739342183631393, 31.961661453544508 ] } },
{ "type": "Feature", "properties": { "OBJECTID": 30, "name": "星伦多自助料理(龙湖河西天街店)", "lng": 118.744966, "lat": 31.994518, "address": "云龙山路89号河西天街5F-02、5F-03号" }, "geometry": { "type": "Point", "coordinates": [ 118.733166263972706, 31.990902736830066 ] } },
{ "type": "Feature", "properties": { "OBJECTID": 31, "name": "撒野自助烤肉(江宁义乌店)", "lng": 118.88387, "lat": 31.944259, "address": "天元东路388号南京义乌小商品城金陵不夜城三楼" }, "geometry": { "type": "Point", "coordinates": [ 118.872265574235314, 31.940649157835118 ] } },
{ "type": "Feature", "properties": { "OBJECTID": 32, "name": "星伦多自助料理(虹悦城店)", "lng": 118.774039, "lat": 32.014883, "address": "应天大街619号虹悦城4F-E02" }, "geometry": { "type": "Point", "coordinates": [ 118.762327262894047, 32.010963123455014 ] } },
{ "type": "Feature", "properties": { "OBJECTID": 33, "name": "新晶丽酒店晶·布菲海鲜烧烤自助(紫荆花路店)", "lng": 118.799429, "lat": 31.997858, "address": "紫荆花路仁恒翠竹园对面" }, "geometry": { "type": "Point", "coordinates": [ 118.78783789223327, 31.993576582801449 ] } },
{ "type": "Feature", "properties": { "OBJECTID": 34, "name": "星伦多自助料理(江宁金鹰店)", "lng": 118.827108, "lat": 31.938511, "address": "双龙大道江宁金鹰购物中心4层" }, "geometry": { "type": "Point", "coordinates": [ 118.815505050999036, 31.934417910345729 ] } },
{ "type": "Feature", "properties": { "OBJECTID": 35, "name": "耘牛宴·现切鲜牛肉自助火锅(新街口店)", "lng": 118.789908, "lat": 32.04423, "address": "明瓦廊133号福中大厦5楼（大洋百货对面）" }, "geometry": { "type": "Point", "coordinates": [ 118.778263386394968, 32.04004778733627 ] } },
{ "type": "Feature", "properties": { "OBJECTID": 36, "name": "水浒烤肉·和牛自助(仙林东城汇店)", "lng": 118.915097, "lat": 32.103902, "address": "东城汇负一楼水浒烤肉" }, "geometry": { "type": "Point", "coordinates": [ 118.903647810953018, 32.099835126627283 ] } },
{ "type": "Feature", "properties": { "OBJECTID": 37, "name": "深海聚汇自助料理(东方福来德店)", "lng": 118.789922, "lat": 32.046751, "address": "中山南路2号东方福来德6楼" }, "geometry": { "type": "Point", "coordinates": [ 118.778274678724372, 32.042568480083233 ] } },
{ "type": "Feature", "properties": { "OBJECTID": 38, "name": "宴誉恋海·活鲜刺身美学自助(新街口店)", "lng": 118.79015, "lat": 32.046843, "address": "中山南路2号东方福来德商场（三胞国际广场）4楼" }, "geometry": { "type": "Point", "coordinates": [ 118.778503706989028, 32.04265747537648 ] } },
{ "type": "Feature", "properties": { "OBJECTID": 39, "name": "晶丽酒店香榭自助餐吧", "lng": 118.78591, "lat": 32.064956, "address": "湖南路街道北京西路7号晶丽酒店1楼(近南京大学)" }, "geometry": { "type": "Point", "coordinates": [ 118.774224707841356, 32.060831364196382 ] } },
{ "type": "Feature", "properties": { "OBJECTID": 40, "name": "金海湾自助餐厅(金陵饭店)", "lng": 118.789253, "lat": 32.048762, "address": "汉中路2号金陵饭店1楼（近汉中路）" }, "geometry": { "type": "Point", "coordinates": [ 118.777600116508452, 32.044588384468511 ] } },
{ "type": "Feature", "properties": { "OBJECTID": 41, "name": "星伦多自助料理·涮烤一体(大观天地店)", "lng": 118.750394, "lat": 32.099516, "address": "建宁路300号大观天地mall2楼" }, "geometry": { "type": "Point", "coordinates": [ 118.738567570290343, 32.095911006078097 ] } },
{ "type": "Feature", "properties": { "OBJECTID": 42, "name": "蚝英雄·鲜蚝自助专门店(新街口店)", "lng": 118.792009, "lat": 32.043155, "address": "淮海路50号（全季酒店旁）" }, "geometry": { "type": "Point", "coordinates": [ 118.780375698558956, 32.038946533129206 ] } },
{ "type": "Feature", "properties": { "OBJECTID": 43, "name": "一绪に寿喜烧放题(新街口中央商场店)", "lng": 118.792156, "lat": 32.044959, "address": "中山南路79号中央商场8楼" }, "geometry": { "type": "Point", "coordinates": [ 118.780521404251147, 32.040748726658606 ] } },
{ "type": "Feature", "properties": { "OBJECTID": 44, "name": "牛new寿喜烧(金茂览秀城店)", "lng": 118.789955, "lat": 32.078251, "address": "中央门街道中央路201号金茂览秀城6楼（地铁1号线2号口出）" }, "geometry": { "type": "Point", "coordinates": [ 118.778286552241582, 32.074070001703163 ] } },
{ "type": "Feature", "properties": { "OBJECTID": 45, "name": "星伦多自助料理(建邺万达店)", "lng": 118.744052, "lat": 32.038578, "address": "江东中路98号商业广场3F" }, "geometry": { "type": "Point", "coordinates": [ 118.732248260432215, 32.034971412330272 ] } },
{ "type": "Feature", "properties": { "OBJECTID": 46, "name": "妖无二·和牛烧烤自助(新街口店)", "lng": 118.793025, "lat": 32.043252, "address": "淮海路88号苏宁生活广场6楼" }, "geometry": { "type": "Point", "coordinates": [ 118.781396254089373, 32.039031960223717 ] } },
{ "type": "Feature", "properties": { "OBJECTID": 47, "name": "元牛自助烤肉(南京万达茂店)", "lng": 118.996555, "lat": 32.127356, "address": "仙林大道181号万达茂3F" }, "geometry": { "type": "Point", "coordinates": [ 118.984786204319903, 32.123761953571126 ] } },
{ "type": "Feature", "properties": { "OBJECTID": 48, "name": "欢乐牧场自助餐(大厂阿卡店)", "lng": 118.745963, "lat": 32.226307, "address": "阿尔卡地亚晓山路100号（九陌贵宾楼对面）" }, "geometry": { "type": "Point", "coordinates": [ 118.734132060418347, 32.222734940103926 ] } },
{ "type": "Feature", "properties": { "OBJECTID": 49, "name": "潮牛岛潮汕鲜切牛肉自助火锅(新街口店)", "lng": 118.791772, "lat": 32.042797, "address": "中山南路金蝶广场5楼" }, "geometry": { "type": "Point", "coordinates": [ 118.780137977984367, 32.038591358931754 ] } },
{ "type": "Feature", "properties": { "OBJECTID": 50, "name": "蜀小北旋转小火锅·烤肉(鼓楼吾悦店)", "lng": 118.783716, "lat": 32.073096, "address": "湖北路51号吾悦广场负一楼(原付小姐在成都)位置好特卖对面" }, "geometry": { "type": "Point", "coordinates": [ 118.772014986080237, 32.069007627623648 ] } },
{ "type": "Feature", "properties": { "OBJECTID": 51, "name": "临水宫海鲜自助餐厅(河西1号街区店)", "lng": 118.742435, "lat": 31.994582, "address": "河西大街66号临水宫水文化酒店（徐矿广场内）" }, "geometry": { "type": "Point", "coordinates": [ 118.730639270235443, 31.990961607591974 ] } },
{ "type": "Feature", "properties": { "OBJECTID": 52, "name": "水林间(江北虹悦城店)", "lng": 118.647191, "lat": 32.072912, "address": "龙华路1号江北虹悦城5F-05" }, "geometry": { "type": "Point", "coordinates": [ 118.635585466706374, 32.069271878486894 ] } },
{ "type": "Feature", "properties": { "OBJECTID": 53, "name": "欢乐牧场自助餐(溧水万达店)", "lng": 119.053841, "lat": 31.631691, "address": "高平大街万达广场四楼4032、4033号" }, "geometry": { "type": "Point", "coordinates": [ 119.042081015953102, 31.62720605349735 ] } },
{ "type": "Feature", "properties": { "OBJECTID": 54, "name": "钱小奴创意自助餐厅(南京江北龙湖店)", "lng": 118.703526, "lat": 32.164586, "address": "江北新区文景路99号江北天街6层" }, "geometry": { "type": "Point", "coordinates": [ 118.691922005092763, 32.160478351258206 ] } },
{ "type": "Feature", "properties": { "OBJECTID": 55, "name": "深海聚汇·牛榴宴·自助料理(雨花客厅店)", "lng": 118.770551, "lat": 31.98356, "address": "软件大道109号雨花客厅E-PAnvRK购物中心9号楼3层3F-05号" }, "geometry": { "type": "Point", "coordinates": [ 118.758801919668628, 31.979689101945379 ] } },
{ "type": "Feature", "properties": { "OBJECTID": 56, "name": "素食者联盟养生自助餐厅(南方花园店)", "lng": 118.824961, "lat": 31.968687, "address": "双龙大道829号1幢106" }, "geometry": { "type": "Point", "coordinates": [ 118.81335669004396, 31.964561796769306 ] } },
{ "type": "Feature", "properties": { "OBJECTID": 57, "name": "松膳和牛自助放题(新街口苏宁生活广场店)", "lng": 118.79309, "lat": 32.043194, "address": "淮海路88号苏宁生活广场6楼601（直梯出口处）" }, "geometry": { "type": "Point", "coordinates": [ 118.781461609946419, 32.038973249584544 ] } },
{ "type": "Feature", "properties": { "OBJECTID": 58, "name": "比格比萨自助(南京万达茂店)", "lng": 118.994596, "lat": 32.126853, "address": "仙林大道181号万达茂室内步行街3F层3072、3073A号商铺" }, "geometry": { "type": "Point", "coordinates": [ 118.982829434419159, 32.12328126909253 ] } },
{ "type": "Feature", "properties": { "OBJECTID": 59, "name": "鲸之味回转自助小火锅(钟鼎名悦店)", "lng": 118.866688, "lat": 32.042085, "address": "钟鼎名悦广场负一楼易买盛生活超市旁" }, "geometry": { "type": "Point", "coordinates": [ 118.855030693514962, 32.038616567977826 ] } },
{ "type": "Feature", "properties": { "OBJECTID": 60, "name": "禾牛社·和牛寿喜烧自助火锅(华采天地店)", "lng": 118.72811, "lat": 32.004192, "address": "江东中路华采天地2期4楼402号（停车场5号电梯直达4楼、4楼雅禾口腔左拐）" }, "geometry": { "type": "Point", "coordinates": [ 118.716376226947986, 32.000444903759671 ] } },
{ "type": "Feature", "properties": { "OBJECTID": 61, "name": "芝小官毛肚火锅烤肉自助(南京栖霞区尧化门金地广场店)", "lng": 118.895964, "lat": 32.130378, "address": "江苏省南京市栖霞区金尧路22号新尧金地广场6楼" }, "geometry": { "type": "Point", "coordinates": [ 118.884445295231572, 32.126620839168062 ] } },
{ "type": "Feature", "properties": { "OBJECTID": 62, "name": "芝小官毛肚火锅烤肉自助(南京浦口区金象城店)", "lng": 118.741676, "lat": 32.132475, "address": "泰山街道江山路6号金象城购物中心5层" }, "geometry": { "type": "Point", "coordinates": [ 118.729879267521042, 32.128884755860248 ] } },
{ "type": "Feature", "properties": { "OBJECTID": 63, "name": "农吾家无限烤肉自助(麟珑汇店)", "lng": 118.933611, "lat": 32.052154, "address": "开城路麟珑汇4楼" }, "geometry": { "type": "Point", "coordinates": [ 118.922159620458174, 32.048028303861443 ] } },
{ "type": "Feature", "properties": { "OBJECTID": 64, "name": "贝拉厨房牛排自助(南方时代店)", "lng": 118.885721, "lat": 32.003588, "address": "润发路9号南方时代广场三层3003/3005号" }, "geometry": { "type": "Point", "coordinates": [ 118.874152144504464, 31.999974027913858 ] } },
{ "type": "Feature", "properties": { "OBJECTID": 65, "name": "宽城子美蛙自助火锅(新街口店)", "lng": 118.791038, "lat": 32.042705, "address": "羊皮巷金銮广场三楼（江苏省文化馆对面）" }, "geometry": { "type": "Point", "coordinates": [ 118.779400584225897, 32.038508323824956 ] } },
{ "type": "Feature", "properties": { "OBJECTID": 66, "name": "重庆叮叮唐冷锅鱼(天元东路店)", "lng": 118.880404, "lat": 31.945573, "address": "秣陵街道天元东路841-843号（龙眠大道地铁站1号口往西300米）" }, "geometry": { "type": "Point", "coordinates": [ 118.868781480083598, 31.942006292010266 ] } },
{ "type": "Feature", "properties": { "OBJECTID": 67, "name": "欧罗浮海鲜自助餐厅(雨花吾悦广场店)", "lng": 118.65932, "lat": 31.91768, "address": "新林大道吾悦广场7楼（近莲花湖公园）" }, "geometry": { "type": "Point", "coordinates": [ 118.647793246854647, 31.913773812201679 ] } },
{ "type": "Feature", "properties": { "OBJECTID": 68, "name": "海皇叔·海鲜烤肉自助(南京旗舰店)", "lng": 118.783293, "lat": 32.073157, "address": "湖北路51号南京鼓楼吾悦广场F5层" }, "geometry": { "type": "Point", "coordinates": [ 118.771589610100605, 32.069075672840889 ] } },
{ "type": "Feature", "properties": { "OBJECTID": 69, "name": "深海聚汇·牛榴宴·自助料理(水游城店)", "lng": 118.792169, "lat": 32.029858, "address": "鹏欣水游城B2层" }, "geometry": { "type": "Point", "coordinates": [ 118.780549237761861, 32.025647777004373 ] } },
{ "type": "Feature", "properties": { "OBJECTID": 70, "name": "咕叽咕叽回转自助小火锅(南京商厦店)", "lng": 118.791073, "lat": 32.09776, "address": "龙蟠路1号南京商厦一楼" }, "geometry": { "type": "Point", "coordinates": [ 118.779419367296654, 32.093571799484209 ] } },
{ "type": "Feature", "properties": { "OBJECTID": 71, "name": "青木台自助料理(六合龙湖天街店)", "lng": 118.850326, "lat": 32.334969, "address": "龙池街道古棠大道龙湖天街4楼" }, "geometry": { "type": "Point", "coordinates": [ 118.838627210834858, 32.331389272351579 ] } },
{ "type": "Feature", "properties": { "OBJECTID": 72, "name": "南京禄口机场铂尔曼大酒店·雅韵西餐厅", "lng": 118.879752, "lat": 31.737005, "address": "空港南路南京禄口机场铂尔曼大酒店3楼（禄口国际机场内、机场1号与2号航站楼之间）" }, "geometry": { "type": "Point", "coordinates": [ 118.868153467551807, 31.733409528292839 ] } },
{ "type": "Feature", "properties": { "OBJECTID": 73, "name": "水林间(紫峰店)", "lng": 118.789767, "lat": 32.067487, "address": "中山北路6号紫峰购物广场2楼" }, "geometry": { "type": "Point", "coordinates": [ 118.77810034607279, 32.063306632070137 ] } },
{ "type": "Feature", "properties": { "OBJECTID": 74, "name": "玄武饭店·望湖璇宫自助餐(中央路店)", "lng": 118.789915, "lat": 32.077114, "address": "湖南路街道中央路193号玄武饭店20楼(近湖南路)" }, "geometry": { "type": "Point", "coordinates": [ 118.778246355215884, 32.072933257979983 ] } },
{ "type": "Feature", "properties": { "OBJECTID": 75, "name": "金鹰国际酒店·大华自助餐厅(新街口店)", "lng": 118.785174, "lat": 32.047562, "address": "汉中路南京金鹰国际酒店28楼" }, "geometry": { "type": "Point", "coordinates": [ 118.773500894987606, 32.043449036905216 ] } },
{ "type": "Feature", "properties": { "OBJECTID": 76, "name": "咖啡炫·自助餐(南京香格里拉店)", "lng": 118.789236, "lat": 32.084667, "address": "中央路329号南京香格里拉2楼（近新模范马路地铁站1号出口）" }, "geometry": { "type": "Point", "coordinates": [ 118.777565185932573, 32.080497541195697 ] } },
{ "type": "Feature", "properties": { "OBJECTID": 77, "name": "牛new寿喜烧(金鹰世界店)", "lng": 118.747518, "lat": 32.029602, "address": "应天大街888号F8021金鹰世界8楼（3号电梯）" }, "geometry": { "type": "Point", "coordinates": [ 118.735719180728566, 32.025995636930737 ] } },
{ "type": "Feature", "properties": { "OBJECTID": 78, "name": "忘不了渔村(将军大道店)", "lng": 118.797162, "lat": 31.926033, "address": "将军大道58号" }, "geometry": { "type": "Point", "coordinates": [ 118.785558071018826, 31.921746854115998 ] } },
{ "type": "Feature", "properties": { "OBJECTID": 79, "name": "禾牛社·和牛寿喜烧自助火锅(环宇城店)", "lng": 118.759098, "lat": 32.051059, "address": "清凉门大街1号南京中海环宇城F4层" }, "geometry": { "type": "Point", "coordinates": [ 118.747292590517404, 32.047374081469698 ] } },
{ "type": "Feature", "properties": { "OBJECTID": 80, "name": "云纳边·云南酸汤鲜切牛肉自助火锅(南京首店)", "lng": 118.789795, "lat": 32.046769, "address": "中山南路东方福来德6楼" }, "geometry": { "type": "Point", "coordinates": [ 118.778147026655404, 32.042588165372997 ] } },
{ "type": "Feature", "properties": { "OBJECTID": 81, "name": "洲际酒店·地平线自助餐厅(南京紫峰洲际酒店店)", "lng": 118.789815, "lat": 32.067254, "address": "中央路南京紫峰洲际酒店45层" }, "geometry": { "type": "Point", "coordinates": [ 118.778148709633314, 32.063072969408879 ] } },
{ "type": "Feature", "properties": { "OBJECTID": 82, "name": "南京景枫万豪酒店·臻厨西餐厅", "lng": 118.828672, "lat": 31.942775, "address": "双龙大道1519号景枫万豪酒店5楼" }, "geometry": { "type": "Point", "coordinates": [ 118.817061728203726, 31.938711162168516 ] } },
{ "type": "Feature", "properties": { "OBJECTID": 83, "name": "牛new寿喜烧(城北万象汇店)", "lng": 118.843119, "lat": 32.127019, "address": "栖霞大道106号南京城北万象汇B馆四层L4138B" }, "geometry": { "type": "Point", "coordinates": [ 118.831483545863478, 32.123294842278511 ] } },
{ "type": "Feature", "properties": { "OBJECTID": 84, "name": "大渔铁板烧(百家湖1912店)", "lng": 118.82522, "lat": 31.936371, "address": "百家湖1912街区9幢202、203" }, "geometry": { "type": "Point", "coordinates": [ 118.813623286120972, 31.932244302198917 ] } },
{ "type": "Feature", "properties": { "OBJECTID": 85, "name": "大渔铁板烧(中山路店)", "lng": 118.790329, "lat": 32.05096, "address": "华侨路街道中山路57号(德基广场2期对面)" }, "geometry": { "type": "Point", "coordinates": [ 118.778679105051083, 32.046771955773991 ] } },
{ "type": "Feature", "properties": { "OBJECTID": 86, "name": "贝拉厨房牛排不限量餐厅(欢乐港店)", "lng": 118.843576, "lat": 32.341621, "address": "龙津路48号欢乐港四楼4026商铺" }, "geometry": { "type": "Point", "coordinates": [ 118.831897677341942, 32.337923405691065 ] } },
{ "type": "Feature", "properties": { "OBJECTID": 87, "name": "南京凯宾斯基酒店·本味Local Palate", "lng": 118.811328, "lat": 32.041307, "address": "龙蟠中路218号凯宾斯基酒店4层" }, "geometry": { "type": "Point", "coordinates": [ 118.799749327969081, 32.03703809978316 ] } },
{ "type": "Feature", "properties": { "OBJECTID": 88, "name": "南京长江之舟华邑酒店·鲜艳自助餐厅", "lng": 118.672267, "lat": 32.051296, "address": "滨江大道504号" }, "geometry": { "type": "Point", "coordinates": [ 118.660744692332969, 32.047184250893572 ] } },
{ "type": "Feature", "properties": { "OBJECTID": 89, "name": "剋火锅鲜切牛肉自助(桥北和天下店)", "lng": 118.743609, "lat": 32.134889, "address": "江山路浦泰和天下1期3幢1楼6号商铺" }, "geometry": { "type": "Point", "coordinates": [ 118.73180868740512, 32.131305131427659 ] } },
{ "type": "Feature", "properties": { "OBJECTID": 90, "name": "南京金茂威斯汀大酒店·湖景知味西餐厅", "lng": 118.789521, "lat": 32.078353, "address": "中央路201号金茂广场南京威斯汀大酒店23楼" }, "geometry": { "type": "Point", "coordinates": [ 118.777850386547911, 32.074177823809386 ] } },
{ "type": "Feature", "properties": { "OBJECTID": 91, "name": "大渔铁板烧(大行宫1912店)", "lng": 118.801881, "lat": 32.050337, "address": "太平北路54号6单元1层" }, "geometry": { "type": "Point", "coordinates": [ 118.79027697495934, 32.046052820878593 ] } },
{ "type": "Feature", "properties": { "OBJECTID": 92, "name": "南京希尔顿酒店-汇·全日餐厅", "lng": 118.744698, "lat": 32.036369, "address": "江东中路100号南京希尔顿酒店1楼" }, "geometry": { "type": "Point", "coordinates": [ 118.732895603747394, 32.032763364324254 ] } },
{ "type": "Feature", "properties": { "OBJECTID": 93, "name": "鲸之味回转自助小火锅(保利樾广场店)", "lng": 118.896204, "lat": 31.938929, "address": "东山街道丽泽路保利樾广场8栋1楼外123号商铺" }, "geometry": { "type": "Point", "coordinates": [ 118.88467343306273, 31.935116935239179 ] } },
{ "type": "Feature", "properties": { "OBJECTID": 94, "name": "期哒禾牛寿喜烧(桃湖公园店)", "lng": 118.744894, "lat": 32.205525, "address": "湖滨路2号桃湖公园商业街05-01-03栋108号" }, "geometry": { "type": "Point", "coordinates": [ 118.73304892455117, 32.201945073793723 ] } },
{ "type": "Feature", "properties": { "OBJECTID": 95, "name": "重庆叮叮唐冷锅鱼(马台街店)", "lng": 118.780218, "lat": 32.077911, "address": "马台街70-10号（星巴克、汉堡王对面）" }, "geometry": { "type": "Point", "coordinates": [ 118.768496678028072, 32.07388359396078 ] } },
{ "type": "Feature", "properties": { "OBJECTID": 96, "name": "苏宁钟山国际高尔夫酒店·兰亭", "lng": 118.883978, "lat": 32.084788, "address": "玄武街道环陵路9号苏宁钟山国际高尔夫酒店1层" }, "geometry": { "type": "Point", "coordinates": [ 118.87235961526531, 32.081208102692031 ] } },
{ "type": "Feature", "properties": { "OBJECTID": 97, "name": "咕叽咕叽回转自助小火锅(茂业天地店)", "lng": 118.791835, "lat": 32.028715, "address": "建康路2号茂业天地负一楼(茂业天地商场一楼小米旁边扶梯下楼右转)" }, "geometry": { "type": "Point", "coordinates": [ 118.780214523181883, 32.024508648697143 ] } },
{ "type": "Feature", "properties": { "OBJECTID": 98, "name": "熊猫小胖自助串串香(新街口店)", "lng": 118.793292, "lat": 32.041605, "address": "洪武路166号（羊皮巷公交站旁）" }, "geometry": { "type": "Point", "coordinates": [ 118.781666237440589, 32.037382122455377 ] } },
{ "type": "Feature", "properties": { "OBJECTID": 99, "name": "海炽烤肉海鲜自助(湖滨花园店)", "lng": 118.820534, "lat": 32.07051, "address": "阳光路3号世纪缘湖滨花园酒店负一楼" }, "geometry": { "type": "Point", "coordinates": [ 118.808925046074165, 32.066337259276786 ] } },
{ "type": "Feature", "properties": { "OBJECTID": 100, "name": "诺富特酒店-品坊自助餐厅(苏宁银河仙林店)", "lng": 118.89771, "lat": 32.091937, "address": "苏宁大道9号玄武诺富特酒店1层" }, "geometry": { "type": "Point", "coordinates": [ 118.886173349910266, 32.088132168658433 ] } },
{ "type": "Feature", "properties": { "OBJECTID": 101, "name": "紫金山庄-紫金楼", "lng": 118.88873, "lat": 32.076657, "address": "江苏省南京市栖霞区环陵路18号" }, "geometry": { "type": "Point", "coordinates": [ 118.877136452150907, 32.073003568554746 ] } },
{ "type": "Feature", "properties": { "OBJECTID": 102, "name": "花味烤肉·拌饭(常发广场店)", "lng": 118.816589, "lat": 32.092075, "address": "红山路常发广场四楼" }, "geometry": { "type": "Point", "coordinates": [ 118.804987848147874, 32.087858283057628 ] } },
{ "type": "Feature", "properties": { "OBJECTID": 103, "name": "中心大酒店-阁敦湾自助餐厅(南京中心大酒店店)", "lng": 118.790043, "lat": 32.051594, "address": "中山路75号中心大酒店4楼" }, "geometry": { "type": "Point", "coordinates": [ 118.778391018986625, 32.047409665288399 ] } },
{ "type": "Feature", "properties": { "OBJECTID": 104, "name": "新之助铁板烧料理(吾悦广场店)", "lng": 118.741847, "lat": 32.043164, "address": "江东中路68号建邺吾悦广场外商4楼451-452、458号" }, "geometry": { "type": "Point", "coordinates": [ 118.730042314013687, 32.039551218056069 ] } },
{ "type": "Feature", "properties": { "OBJECTID": 105, "name": "期哒禾牛寿喜烧(鼓楼ITC店)", "lng": 118.748377, "lat": 32.091683, "address": "热河南路2号ITCmall4楼" }, "geometry": { "type": "Point", "coordinates": [ 118.736544266723172, 32.088081184763496 ] } },
{ "type": "Feature", "properties": { "OBJECTID": 106, "name": "水林间(仙林金鹰店)", "lng": 118.932929, "lat": 32.108665, "address": "学海路1号金鹰奥莱城一期D馆二楼" }, "geometry": { "type": "Point", "coordinates": [ 118.921483430059652, 32.104549982171747 ] } },
{ "type": "Feature", "properties": { "OBJECTID": 107, "name": "蒸朋满福烧烤·火锅·龙虾(成贤街店)", "lng": 118.801793, "lat": 32.056987, "address": "新街口街道成贤街57-1号(珍珠饭店向北100米)" }, "geometry": { "type": "Point", "coordinates": [ 118.790181970188229, 32.05270291227847 ] } },
{ "type": "Feature", "properties": { "OBJECTID": 108, "name": "味美仙牛羊肉自助铜炉火锅(游坊城店)", "lng": 118.726544, "lat": 31.972049, "address": "友谊街58号游坊城二楼" }, "geometry": { "type": "Point", "coordinates": [ 118.714793538592176, 31.968264056731705 ] } },
{ "type": "Feature", "properties": { "OBJECTID": 109, "name": "金陵尚品健康餐厅(中山北路店)", "lng": 118.768169, "lat": 32.083832, "address": "挹江门街道中山北路283号物资大厦2楼(近察哈尔路)" }, "geometry": { "type": "Point", "coordinates": [ 118.756383464098477, 32.080020318139972 ] } },
{ "type": "Feature", "properties": { "OBJECTID": 110, "name": "大渔铁板烧(金鹰世界店)", "lng": 118.746452, "lat": 32.028588, "address": "应天大街888号金鹰世界7楼" }, "geometry": { "type": "Point", "coordinates": [ 118.734654529456733, 32.024982689200243 ] } },
{ "type": "Feature", "properties": { "OBJECTID": 111, "name": "重庆叮叮唐冷锅鱼(万达店)", "lng": 118.744264, "lat": 32.038554, "address": "江东中路98号万达广场苏宁易家B1层" }, "geometry": { "type": "Point", "coordinates": [ 118.732459982742441, 32.034947755022586 ] } },
{ "type": "Feature", "properties": { "OBJECTID": 112, "name": "重庆叮叮唐冷锅鱼(缤润汇店)", "lng": 118.73644, "lat": 31.998969, "address": "楠溪江东街83号金奥缤润汇负2层B204-1室" }, "geometry": { "type": "Point", "coordinates": [ 118.724664418520419, 31.995315357069522 ] } },
{ "type": "Feature", "properties": { "OBJECTID": 113, "name": "文三酒肆(雨花台虹悦城店)", "lng": 118.771856, "lat": 32.015249, "address": "长虹路222号虹悦城2楼（喷泉对面）" }, "geometry": { "type": "Point", "coordinates": [ 118.76013250857028, 32.011368327841481 ] } },
{ "type": "Feature", "properties": { "OBJECTID": 114, "name": "淞临家·铁板烧海鲜料理自助餐(吾悦广场店)", "lng": 118.743101, "lat": 32.042548, "address": "江东中路建邺吾悦广场悦街3楼345号、363号商铺" }, "geometry": { "type": "Point", "coordinates": [ 118.731294563427468, 32.038939225969685 ] } },
{ "type": "Feature", "properties": { "OBJECTID": 115, "name": "咱村小院(虎踞关店)", "lng": 118.769841, "lat": 32.058716, "address": "虎踞关8号-9号南京鼓楼创业园鼓楼区职业技能开发培训中心虎距关8-3号" }, "geometry": { "type": "Point", "coordinates": [ 118.758071823435785, 32.054872026733655 ] } },
{ "type": "Feature", "properties": { "OBJECTID": 116, "name": "食牛兽·自助炭火烤肉(白马生活广场店)", "lng": 118.637396, "lat": 32.082147, "address": "狮山路白马生活广场4楼" }, "geometry": { "type": "Point", "coordinates": [ 118.625768340967014, 32.078654334913786 ] } },
{ "type": "Feature", "properties": { "OBJECTID": 117, "name": "文三酒肆(江北虹悦城店)", "lng": 118.646816, "lat": 32.073065, "address": "龙华路1号江北虹悦城5F-11" }, "geometry": { "type": "Point", "coordinates": [ 118.635209363603352, 32.069431575309004 ] } },
{ "type": "Feature", "properties": { "OBJECTID": 118, "name": "期哒禾牛寿喜烧(大行宫店)", "lng": 118.801566, "lat": 32.046388, "address": "太平南路新世纪广场美食广场5楼（近大行宫地铁站）" }, "geometry": { "type": "Point", "coordinates": [ 118.789965415158207, 32.042105036048973 ] } },
{ "type": "Feature", "properties": { "OBJECTID": 119, "name": "大渔铁板烧(金茂览秀城店)", "lng": 118.789769, "lat": 32.078606, "address": "中央路201号览秀城8楼L801-1" }, "geometry": { "type": "Point", "coordinates": [ 118.778099639136798, 32.074427559734922 ] } },
{ "type": "Feature", "properties": { "OBJECTID": 120, "name": "熊猫小胖自助串串香(总店)", "lng": 118.840552, "lat": 32.119153, "address": "迈皋桥季家街林景御园05幢1室（一层）" }, "geometry": { "type": "Point", "coordinates": [ 118.82891931519778, 32.115375101613502 ] } },
{ "type": "Feature", "properties": { "OBJECTID": 121, "name": "星伦多自助料理(印象汇店)", "lng": 118.728822, "lat": 32.146962, "address": "大桥北路58号印象汇F4-01A" }, "geometry": { "type": "Point", "coordinates": [ 118.717071382642501, 32.143255447865037 ] } },
{ "type": "Feature", "properties": { "OBJECTID": 122, "name": "一品牛串串火锅烤肉自助(金象城店)", "lng": 118.741835, "lat": 32.132692, "address": "江山路6号金象城6层M-6F-11号南京大排档隔壁" }, "geometry": { "type": "Point", "coordinates": [ 118.730037943955423, 32.129102417505813 ] } },
{ "type": "Feature", "properties": { "OBJECTID": 123, "name": "文三酒肆(龙湖江北天街店)", "lng": 118.705077, "lat": 32.164287, "address": "文景路99号龙湖南京江北天街6层6-21号" }, "geometry": { "type": "Point", "coordinates": [ 118.693463886997421, 32.160199897376025 ] } },
{ "type": "Feature", "properties": { "OBJECTID": 124, "name": "韩右右·榴莲宴·鲜切牛肉主题自助料理(南京新街口店)", "lng": 118.793204, "lat": 32.043245, "address": "淮海路88号101室第6层604商铺" }, "geometry": { "type": "Point", "coordinates": [ 118.781576065631711, 32.039023004240647 ] } },
{ "type": "Feature", "properties": { "OBJECTID": 125, "name": "国际青年会议酒店·鄉·全日餐厅(邺城路店)", "lng": 118.715936, "lat": 31.997294, "address": "邺城路8号国际青年会议酒店2层" }, "geometry": { "type": "Point", "coordinates": [ 118.704275055513762, 31.993346531761581 ] } },
{ "type": "Feature", "properties": { "OBJECTID": 126, "name": "文三酒肆(新街口友谊广场店)", "lng": 118.78793, "lat": 32.047639, "address": "汉中路27号友谊广场4楼" }, "geometry": { "type": "Point", "coordinates": [ 118.776271552154014, 32.043484065655292 ] } },
{ "type": "Feature", "properties": { "OBJECTID": 127, "name": "一鸣功夫鲜切牛肉自助火锅·牛蛙自助(潭桥店)", "lng": 118.855602, "lat": 31.92849, "address": "科宁路168号" }, "geometry": { "type": "Point", "coordinates": [ 118.843942946138114, 31.924918427147684 ] } },
{ "type": "Feature", "properties": { "OBJECTID": 128, "name": "金奥国际酒店ALTITUDE全日餐厅", "lng": 118.731418, "lat": 32.003748, "address": "江东中路333号南京金奥国际酒店60楼（近河西中央公园）" }, "geometry": { "type": "Point", "coordinates": [ 118.719666762190343, 32.000044305905789 ] } },
{ "type": "Feature", "properties": { "OBJECTID": 129, "name": "水林间(雨花虹悦城店)", "lng": 118.772815, "lat": 32.015243, "address": "应天大街619号虹悦城4楼M07号" }, "geometry": { "type": "Point", "coordinates": [ 118.761096611279413, 32.011345228429498 ] } },
{ "type": "Feature", "properties": { "OBJECTID": 130, "name": "南京维景国际大酒店咖啡厅", "lng": 118.829767, "lat": 32.046023, "address": "中山东路南京维景国际大酒店内" }, "geometry": { "type": "Point", "coordinates": [ 118.818159413891706, 32.042007842305317 ] } },
{ "type": "Feature", "properties": { "OBJECTID": 131, "name": "一绪に寿喜烧放题(虹悦城店)", "lng": 118.77325, "lat": 32.015424, "address": "应天大街619号虹悦城4楼4F-106号" }, "geometry": { "type": "Point", "coordinates": [ 118.761533944432514, 32.011518468056536 ] } },
{ "type": "Feature", "properties": { "OBJECTID": 132, "name": "宽城子美蛙自助火锅(建邺万达步行街店)", "lng": 118.743771, "lat": 32.036042, "address": "建邺万达写字楼G座-2号商铺（福园街133-2号）" }, "geometry": { "type": "Point", "coordinates": [ 118.731970223427496, 32.032434938093218 ] } },
{ "type": "Feature", "properties": { "OBJECTID": 133, "name": "涵碧楼酒店·Ho jia 9全日餐厅(建邺店)", "lng": 118.728307, "lat": 32.04674, "address": "扬子江大道208号" }, "geometry": { "type": "Point", "coordinates": [ 118.716551689506574, 32.043000979859613 ] } },
{ "type": "Feature", "properties": { "OBJECTID": 134, "name": "期哒禾牛寿喜烧(弘阳广场店)", "lng": 118.731486, "lat": 32.144529, "address": "大桥北路弘阳广场C馆4楼" }, "geometry": { "type": "Point", "coordinates": [ 118.719723081987169, 32.140856805842951 ] } },
{ "type": "Feature", "properties": { "OBJECTID": 135, "name": "金丝利喜来登酒店·Daily Social食光", "lng": 118.777749, "lat": 32.048053, "address": "汉中路169号金丝利喜来登酒店2楼（近牌楼巷）" }, "geometry": { "type": "Point", "coordinates": [ 118.766033549631075, 32.044067746806476 ] } },
{ "type": "Feature", "properties": { "OBJECTID": 136, "name": "转角遇见旋转自助小火锅(龙眠大道店)", "lng": 118.883043, "lat": 31.94477, "address": "义乌小商品城" }, "geometry": { "type": "Point", "coordinates": [ 118.871433968099851, 31.941171213139349 ] } },
{ "type": "Feature", "properties": { "OBJECTID": 137, "name": "南京上秦淮假日酒店-百香全日餐厅", "lng": 118.836324, "lat": 31.875504, "address": "秣周东路21号南京上秦淮假日酒店一楼" }, "geometry": { "type": "Point", "coordinates": [ 118.824722763056798, 31.871585042131191 ] } },
{ "type": "Feature", "properties": { "OBJECTID": 138, "name": "新集老母鸡一锅鲜宝字(大厂店)", "lng": 118.745044, "lat": 32.226856, "address": "大厂街道阿卡迪亚商业街晓山路106-3号" }, "geometry": { "type": "Point", "coordinates": [ 118.733214501448415, 32.223283834833978 ] } },
{ "type": "Feature", "properties": { "OBJECTID": 139, "name": "古南都饭店-遂心遂意自助餐厅(广州路店)", "lng": 118.77997, "lat": 32.057812, "address": "华侨路街道广州路208号古南都饭店1楼(近五台山体育中心)" }, "geometry": { "type": "Point", "coordinates": [ 118.768257140329595, 32.053786742168661 ] } },
{ "type": "Feature", "properties": { "OBJECTID": 140, "name": "南京翠屏新港假日酒店金陵印象自助餐", "lng": 118.874724, "lat": 32.168679, "address": "经济技术开发区新港大道88号1栋301室" }, "geometry": { "type": "Point", "coordinates": [ 118.863070478089242, 32.165213970158035 ] } },
{ "type": "Feature", "properties": { "OBJECTID": 141, "name": "大成小火锅(江宁万达店)", "lng": 118.849827, "lat": 31.957099, "address": "竹山路68号万达广场F4层" }, "geometry": { "type": "Point", "coordinates": [ 118.83815575464196, 31.953447897375764 ] } },
{ "type": "Feature", "properties": { "OBJECTID": 142, "name": "鲜牛捞贵州黄牛肉自助火锅", "lng": 118.933245, "lat": 32.05247, "address": "开城路111号(麟珑汇4楼)" }, "geometry": { "type": "Point", "coordinates": [ 118.92179437230844, 32.0483421992936 ] } },
{ "type": "Feature", "properties": { "OBJECTID": 143, "name": "南京世茂滨江希尔顿酒店·悦河咖啡厅", "lng": 118.739343, "lat": 32.082569, "address": "淮滨路1号南京世茂滨江希尔顿酒店2楼" }, "geometry": { "type": "Point", "coordinates": [ 118.727519773938042, 32.078947022686691 ] } },
{ "type": "Feature", "properties": { "OBJECTID": 144, "name": "南京玄武诺富特酒店·西餐厅(南京玄武苏宁诺富特酒店店)", "lng": 118.897699, "lat": 32.091884, "address": "苏宁大道9号玄武诺富特酒店1层" }, "geometry": { "type": "Point", "coordinates": [ 118.886162252385034, 32.088079344697967 ] } },
{ "type": "Feature", "properties": { "OBJECTID": 145, "name": "隽恒酒店-贻·尚西餐厅", "lng": 118.769706, "lat": 32.060367, "address": "西康路1号隽恒酒店1楼" }, "geometry": { "type": "Point", "coordinates": [ 118.757934723661265, 32.056525375504641 ] } },
{ "type": "Feature", "properties": { "OBJECTID": 146, "name": "汕口牛·牛腩牛杂自助放题(金奥缤润汇店)", "lng": 118.736614, "lat": 31.998745, "address": "江东街83号金奥缤纷汇负二楼" }, "geometry": { "type": "Point", "coordinates": [ 118.724837633445063, 31.995092714986136 ] } },
{ "type": "Feature", "properties": { "OBJECTID": 147, "name": "富力万达嘉华酒店·美食汇全日餐厅", "lng": 118.851527, "lat": 31.957745, "address": "竹山路55号南京万达嘉华酒店1层" }, "geometry": { "type": "Point", "coordinates": [ 118.839852968314659, 31.954120564625821 ] } },
{ "type": "Feature", "properties": { "OBJECTID": 148, "name": "水林间(新尧金地广场店)", "lng": 118.895816, "lat": 32.130548, "address": "金尧路新尧金地广场L5007" }, "geometry": { "type": "Point", "coordinates": [ 118.884296471815688, 32.126793541604357 ] } },
{ "type": "Feature", "properties": { "OBJECTID": 149, "name": "金鹰珠江壹号国际酒店·尚美西餐厅", "lng": 118.791444, "lat": 32.056987, "address": "珠江路1号南京金鹰珠江壹号国际酒店七楼" }, "geometry": { "type": "Point", "coordinates": [ 118.779793399108385, 32.052784775889116 ] } },
{ "type": "Feature", "properties": { "OBJECTID": 150, "name": "味美仙牛羊肉自助铜炉火锅(新尧金地店)", "lng": 118.895806, "lat": 32.130266, "address": "金尧路22号金地广场5楼" }, "geometry": { "type": "Point", "coordinates": [ 118.88428635719373, 32.126511644561269 ] } },
{ "type": "Feature", "properties": { "OBJECTID": 151, "name": "南京华泰万丽酒店Food Studio燃", "lng": 118.731159, "lat": 32.008448, "address": "奥体大街139号南京华泰万丽酒店1楼前台旁" }, "geometry": { "type": "Point", "coordinates": [ 118.719410933563736, 32.0047428527973 ] } },
{ "type": "Feature", "properties": { "OBJECTID": 152, "name": "江浦川河冷锅鱼自助(北江豪庭店)", "lng": 118.619965, "lat": 32.060166, "address": "雨山西路89号" }, "geometry": { "type": "Point", "coordinates": [ 118.60834988067046, 32.056719518937015 ] } },
{ "type": "Feature", "properties": { "OBJECTID": 153, "name": "德悦壹号海鲜火锅烤肉自助(大洋百货店)", "lng": 118.789779, "lat": 32.045037, "address": "中山南路122号大洋百货6楼" }, "geometry": { "type": "Point", "coordinates": [ 118.77813285620347, 32.040856462813643 ] } },
{ "type": "Feature", "properties": { "OBJECTID": 154, "name": "九华饭店和润厅", "lng": 118.813637, "lat": 32.063976, "address": "北京东路77号九华饭店内" }, "geometry": { "type": "Point", "coordinates": [ 118.802036569606017, 32.059723618707729 ] } },
{ "type": "Feature", "properties": { "OBJECTID": 155, "name": "贝拉厨房牛排不限量餐厅(茂业天地店)", "lng": 118.792059, "lat": 32.02862, "address": "建康路2号茂业天地广场5楼" }, "geometry": { "type": "Point", "coordinates": [ 118.780439638575288, 32.024410996744002 ] } },
{ "type": "Feature", "properties": { "OBJECTID": 156, "name": "龙歌自助小火锅(秦淮水游城店)", "lng": 118.79224, "lat": 32.030071, "address": "建康路1号鹏欣水游城负2楼S区" }, "geometry": { "type": "Point", "coordinates": [ 118.780620403775316, 32.025859961477316 ] } }
]
}
