{
"type": "FeatureCollection",
"name": "药店",
"crs": { "type": "name", "properties": { "name": "urn:ogc:def:crs:OGC:1.3:CRS84" } },
"xy_coordinate_resolution": 1e-15,
"features": [
{ "type": "Feature", "properties": { "OBJECTID": 1, "name": "益丰大药房(曹后村店)", "lng": 118.811743, "lat": 32.091054, "address": "南京市玄武区红山南路曹后村9号小区西南侧约30米" }, "geometry": { "type": "Point", "coordinates": [ 118.80014173498553, 32.086793708851332 ] } },
{ "type": "Feature", "properties": { "OBJECTID": 2, "name": "新春大药房(文宗路店)", "lng": 118.936753, "lat": 32.129618, "address": "南京市栖霞区文宗路高科荣域" }, "geometry": { "type": "Point", "coordinates": [ 118.925308218469013, 32.125537778347741 ] } },
{ "type": "Feature", "properties": { "OBJECTID": 3, "name": "奇冠药店(经贸学院药店)", "lng": 118.894322, "lat": 31.938493, "address": "江苏省南京市江宁区经贸学院路8号保利樾广场6栋6-6号" }, "geometry": { "type": "Point", "coordinates": [ 118.882780943989914, 31.93471459453945 ] } },
{ "type": "Feature", "properties": { "OBJECTID": 4, "name": "海王星辰健康药房(丽新路)", "lng": 118.710849, "lat": 32.165387, "address": "南京市浦口区丽新路艾菲国际" }, "geometry": { "type": "Point", "coordinates": [ 118.699197145328839, 32.161386805290533 ] } },
{ "type": "Feature", "properties": { "OBJECTID": 5, "name": "杏林大药房(万达茂仙林大道店)", "lng": 118.994525, "lat": 32.127552, "address": "江苏省南京市栖霞区仙林大道181号万达茂(仙林大道店)F1" }, "geometry": { "type": "Point", "coordinates": [ 118.982758784166236, 32.12398123882889 ] } },
{ "type": "Feature", "properties": { "OBJECTID": 6, "name": "泰昌大药房(建宁路店)", "lng": 118.786214, "lat": 32.097055, "address": "江苏省南京市鼓楼区龙蟠路232号" }, "geometry": { "type": "Point", "coordinates": [ 118.77453488260538, 32.092934559656072 ] } },
{ "type": "Feature", "properties": { "OBJECTID": 7, "name": "先声再康药店(丹凤街药店)", "lng": 118.79373, "lat": 32.062742, "address": "江苏省南京市玄武区丹凤街10-8号" }, "geometry": { "type": "Point", "coordinates": [ 118.782085001022452, 32.05851398014363 ] } },
{ "type": "Feature", "properties": { "OBJECTID": 8, "name": "南京人民药店(十一分店)", "lng": 118.813698, "lat": 32.08564, "address": "江苏省南京市玄武区龙蟠路155号-7号" }, "geometry": { "type": "Point", "coordinates": [ 118.802094334302836, 32.081392478005732 ] } },
{ "type": "Feature", "properties": { "OBJECTID": 9, "name": "海王星辰健康药房(中央路店)", "lng": 118.791133, "lat": 32.074168, "address": "江苏省南京市玄武区玄武门街道中央路70号2幢1层103室" }, "geometry": { "type": "Point", "coordinates": [ 118.779470633963612, 32.069971012421917 ] } },
{ "type": "Feature", "properties": { "OBJECTID": 10, "name": "益丰大药房(南京秣陵路店)", "lng": 118.785707, "lat": 32.042636, "address": "江苏省南京市秦淮区朝天宫街道秣陵路20号5-8单元底层105号商铺" }, "geometry": { "type": "Point", "coordinates": [ 118.774042214090244, 32.038514850736085 ] } },
{ "type": "Feature", "properties": { "OBJECTID": 11, "name": "高济先声再康药房(新壹城药店)", "lng": 118.910793, "lat": 31.918997, "address": "江苏省南京市江宁区龙眠大道660号新壹商业广场5幢" }, "geometry": { "type": "Point", "coordinates": [ 118.899355470496872, 31.914943279506787 ] } },
{ "type": "Feature", "properties": { "OBJECTID": 12, "name": "聚力堂大药房(亚东商业广场店)", "lng": 118.921608, "lat": 32.100839, "address": "南京市栖霞区文范路8号亚东商业广场F1" }, "geometry": { "type": "Point", "coordinates": [ 118.910167121276302, 32.096719060831958 ] } },
{ "type": "Feature", "properties": { "OBJECTID": 13, "name": "益丰大药房(孝陵卫街店)", "lng": 118.866427, "lat": 32.041052, "address": "江苏省南京市玄武区孝陵卫街99号-109室" }, "geometry": { "type": "Point", "coordinates": [ 118.854770336509205, 32.037583204988792 ] } },
{ "type": "Feature", "properties": { "OBJECTID": 14, "name": "先声再康药店(百隆大药房)", "lng": 118.85658, "lat": 32.042289, "address": "南京市玄武区中山门大街樱花苑" }, "geometry": { "type": "Point", "coordinates": [ 118.844915945003734, 32.038756381889812 ] } },
{ "type": "Feature", "properties": { "OBJECTID": 15, "name": "益丰大药房(花港三店)", "lng": 118.917727, "lat": 32.043867, "address": "江苏省南京市栖霞区马群街道花港路91号" }, "geometry": { "type": "Point", "coordinates": [ 118.906293315881129, 32.03976314140494 ] } },
{ "type": "Feature", "properties": { "OBJECTID": 16, "name": "保恩堂(丁家庄店)", "lng": 118.85979, "lat": 32.118439, "address": "南京市栖霞区福寿街凤康园" }, "geometry": { "type": "Point", "coordinates": [ 118.848126269486443, 32.114955703580684 ] } },
{ "type": "Feature", "properties": { "OBJECTID": 17, "name": "南京臣功智慧大药房", "lng": 118.966605, "lat": 32.13662, "address": "南京市栖霞区纬地路江苏生命科技创新园" }, "geometry": { "type": "Point", "coordinates": [ 118.954967621572877, 32.132978535789121 ] } },
{ "type": "Feature", "properties": { "OBJECTID": 18, "name": "百信药房(孝陵卫药店)", "lng": 118.866513, "lat": 32.041045, "address": "江苏省南京市玄武区孝陵卫街99号" }, "geometry": { "type": "Point", "coordinates": [ 118.854856497866805, 32.03757634637401 ] } },
{ "type": "Feature", "properties": { "OBJECTID": 19, "name": "百信药房(银城东苑店)", "lng": 118.851043, "lat": 32.031486, "address": "南京市玄武区东苑路银城东苑-西华园" }, "geometry": { "type": "Point", "coordinates": [ 118.839395429819533, 32.027880007790742 ] } },
{ "type": "Feature", "properties": { "OBJECTID": 20, "name": "高济先声再康药房(侨悦路药店)", "lng": 119.001971, "lat": 32.15567, "address": "江苏省南京市栖霞区欢乐大道翡翠天域星园一期" }, "geometry": { "type": "Point", "coordinates": [ 118.990189560237397, 32.15200062736097 ] } },
{ "type": "Feature", "properties": { "OBJECTID": 21, "name": "润天好药房(新特药店)", "lng": 118.790307, "lat": 32.073558, "address": "江苏省南京市鼓楼区中央路129号" }, "geometry": { "type": "Point", "coordinates": [ 118.778640741694844, 32.069371382743626 ] } },
{ "type": "Feature", "properties": { "OBJECTID": 22, "name": "高济先声再康药房(桥西路药店)", "lng": 118.84867, "lat": 32.336075, "address": "江苏省南京市六合区桥西路137号" }, "geometry": { "type": "Point", "coordinates": [ 118.836975143935192, 32.33246847008467 ] } },
{ "type": "Feature", "properties": { "OBJECTID": 23, "name": "海王星辰健康药房(南京协众雅居店)", "lng": 118.908093, "lat": 31.920661, "address": "南京市江宁区恒昌路协众雅居二期" }, "geometry": { "type": "Point", "coordinates": [ 118.896642956492656, 31.916646052050382 ] } },
{ "type": "Feature", "properties": { "OBJECTID": 24, "name": "十村药店", "lng": 118.766492, "lat": 32.237907, "address": "江苏省南京市六合区大厂葛关路418号" }, "geometry": { "type": "Point", "coordinates": [ 118.754713075076495, 32.23415680925978 ] } },
{ "type": "Feature", "properties": { "OBJECTID": 25, "name": "国胜大药房(文鼎雅苑店)", "lng": 118.917861, "lat": 31.916126, "address": "江苏省南京市江宁区玉树路88号文鼎雅苑南京江宁同和堂中医门诊部" }, "geometry": { "type": "Point", "coordinates": [ 118.906446143727067, 31.911993821458271 ] } },
{ "type": "Feature", "properties": { "OBJECTID": 26, "name": "南京同仁堂药业(新厂区)", "lng": 118.680018, "lat": 32.196252, "address": "江苏省南京市浦口区星宇路98号" }, "geometry": { "type": "Point", "coordinates": [ 118.668471934199303, 32.192075665292506 ] } },
{ "type": "Feature", "properties": { "OBJECTID": 27, "name": "民信药房(汤山药店)", "lng": 119.069306, "lat": 32.062911, "address": "江苏省南京市江宁区汤泉东路51号" }, "geometry": { "type": "Point", "coordinates": [ 119.057393822396321, 32.058659460014468 ] } },
{ "type": "Feature", "properties": { "OBJECTID": 28, "name": "康晴药店", "lng": 118.829199, "lat": 31.953636, "address": "江苏省南京市江宁区上元大街88号" }, "geometry": { "type": "Point", "coordinates": [ 118.81758209036245, 31.949583512057576 ] } },
{ "type": "Feature", "properties": { "OBJECTID": 29, "name": "老百姓大药房(加州城店)", "lng": 118.902444, "lat": 31.907309, "address": "江苏省南京市江宁区弘景大道3888号" }, "geometry": { "type": "Point", "coordinates": [ 118.890978874934191, 31.903386339017402 ] } },
{ "type": "Feature", "properties": { "OBJECTID": 30, "name": "南京人民药店(灵岩花园店)", "lng": 118.88419, "lat": 32.339367, "address": "江苏省南京市六合区文峰路10-4号" }, "geometry": { "type": "Point", "coordinates": [ 118.872559760043004, 32.335819271393078 ] } },
{ "type": "Feature", "properties": { "OBJECTID": 31, "name": "碧水药店(创维文汇苑店)", "lng": 119.01998, "lat": 31.69802, "address": "江苏省南京市溧水区群力大道19号1幢102" }, "geometry": { "type": "Point", "coordinates": [ 119.008237599212208, 31.693892346437959 ] } },
{ "type": "Feature", "properties": { "OBJECTID": 32, "name": "南京宏佳大药房", "lng": 118.821212, "lat": 32.53335, "address": "江苏省南京市六合区人民路120号" }, "geometry": { "type": "Point", "coordinates": [ 118.809571312100161, 32.529202765464504 ] } },
{ "type": "Feature", "properties": { "OBJECTID": 33, "name": "汉欣医药", "lng": 118.968318, "lat": 32.139775, "address": "江苏省南京市栖霞区纬地路9号江苏生命科技创新园c5栋" }, "geometry": { "type": "Point", "coordinates": [ 118.956667992031839, 32.136157052960989 ] } },
{ "type": "Feature", "properties": { "OBJECTID": 34, "name": "南京益康大药房(润玉路店)", "lng": 118.91918, "lat": 32.230782, "address": "江苏省南京市六合区润玉路61号" }, "geometry": { "type": "Point", "coordinates": [ 118.907734930423203, 32.226701620990745 ] } },
{ "type": "Feature", "properties": { "OBJECTID": 35, "name": "大医精诚大药房(花港西路店)", "lng": 118.902836, "lat": 32.035482, "address": "江苏省南京市栖霞区马群街道花港西路2-6号" }, "geometry": { "type": "Point", "coordinates": [ 118.891355534563615, 32.031580188186894 ] } },
{ "type": "Feature", "properties": { "OBJECTID": 36, "name": "百信大药房(晓庄店)", "lng": 118.828757, "lat": 32.138718, "address": "江苏省南京市栖霞区和燕路469号" }, "geometry": { "type": "Point", "coordinates": [ 118.817162784217999, 32.134708045888495 ] } },
{ "type": "Feature", "properties": { "OBJECTID": 37, "name": "南京一百一大药房(第十二店)", "lng": 118.851247, "lat": 32.341102, "address": "江苏省南京市六合区龙棠路御龙湾115室173-175号" }, "geometry": { "type": "Point", "coordinates": [ 118.839551764946265, 32.337538153281457 ] } },
{ "type": "Feature", "properties": { "OBJECTID": 38, "name": "益丰大药房(南京玉尚路店)", "lng": 118.828207, "lat": 32.117892, "address": "江苏省南京市栖霞区玉尚路9-50号" }, "geometry": { "type": "Point", "coordinates": [ 118.816608205646219, 32.113865501471608 ] } },
{ "type": "Feature", "properties": { "OBJECTID": 39, "name": "海王星辰健康药房(智康路店)", "lng": 118.919147, "lat": 32.033726, "address": "南京市江宁区智康路中海御山府-一期" }, "geometry": { "type": "Point", "coordinates": [ 118.907726011617299, 32.02961117372891 ] } },
{ "type": "Feature", "properties": { "OBJECTID": 40, "name": "乐生大药店", "lng": 119.074474, "lat": 32.046115, "address": "江苏省南京市江宁区上善路汤水雅居东苑17栋105室" }, "geometry": { "type": "Point", "coordinates": [ 119.062542485086155, 32.041948625858502 ] } },
{ "type": "Feature", "properties": { "OBJECTID": 41, "name": "科默医药", "lng": 118.966856, "lat": 32.139936, "address": "南京市栖霞区智谷大道江苏生命科技创新园" }, "geometry": { "type": "Point", "coordinates": [ 118.955216142804176, 32.136298527126222 ] } },
{ "type": "Feature", "properties": { "OBJECTID": 42, "name": "同谷鸟健康大药房", "lng": 118.876928, "lat": 32.100323, "address": "江苏省南京市玄武区玄武大道90-22号" }, "geometry": { "type": "Point", "coordinates": [ 118.865286535779106, 32.096828029460831 ] } },
{ "type": "Feature", "properties": { "OBJECTID": 43, "name": "高济先声再康药店(六合林场路药店)", "lng": 118.84653, "lat": 32.32162, "address": "江苏省南京市六合区林场路119号2幢-108号" }, "geometry": { "type": "Point", "coordinates": [ 118.834832183443567, 32.317973432736594 ] } },
{ "type": "Feature", "properties": { "OBJECTID": 44, "name": "益丰大药房(鹤鸣路二店)", "lng": 118.906516, "lat": 32.096199, "address": "南京市玄武区鹤鸣路52号仙鹤茗苑51栋" }, "geometry": { "type": "Point", "coordinates": [ 118.895028559882817, 32.092244094241892 ] } },
{ "type": "Feature", "properties": { "OBJECTID": 45, "name": "鹤益龄大药房", "lng": 118.875748, "lat": 31.960798, "address": "江苏省南京市江宁区湖山路169号" }, "geometry": { "type": "Point", "coordinates": [ 118.864101789137607, 31.957277412219156 ] } },
{ "type": "Feature", "properties": { "OBJECTID": 46, "name": "南京人民药店(第五十六分店)", "lng": 118.938164, "lat": 32.328246, "address": "江苏省南京市六合区横梁街道山东路51-11号" }, "geometry": { "type": "Point", "coordinates": [ 118.926662116089744, 32.324192512668098 ] } },
{ "type": "Feature", "properties": { "OBJECTID": 47, "name": "南京依医药房有限公司", "lng": 118.88628, "lat": 32.046258, "address": "江苏省南京市玄武区顾家营路44-7号" }, "geometry": { "type": "Point", "coordinates": [ 118.87469460512807, 32.042641246277931 ] } },
{ "type": "Feature", "properties": { "OBJECTID": 48, "name": "益丰大药房(南京中央北路店)", "lng": 118.790943, "lat": 32.101599, "address": "江苏省南京市鼓楼区中央北路3号之1-10(南数第四间)" }, "geometry": { "type": "Point", "coordinates": [ 118.77929206060098, 32.097414213389236 ] } },
{ "type": "Feature", "properties": { "OBJECTID": 49, "name": "怡佳仁", "lng": 118.95865, "lat": 32.204551, "address": "南京市六合区划子口西路与龙江路交叉路口往西北约230米" }, "geometry": { "type": "Point", "coordinates": [ 118.947027949320216, 32.200787515241309 ] } },
{ "type": "Feature", "properties": { "OBJECTID": 50, "name": "初心堂药房", "lng": 118.898288, "lat": 32.408062, "address": "江苏省南京市六合区金牛湖街道长山社区长项路6号" }, "geometry": { "type": "Point", "coordinates": [ 118.886736754191602, 32.404277974954148 ] } },
{ "type": "Feature", "properties": { "OBJECTID": 51, "name": "海王星辰健康药房(学森路店)", "lng": 118.984506, "lat": 32.132049, "address": "南京市栖霞区学森路新城·香悦澜山" }, "geometry": { "type": "Point", "coordinates": [ 118.972767198965926, 32.128536868384849 ] } },
{ "type": "Feature", "properties": { "OBJECTID": 52, "name": "民信药房(东山药店)", "lng": 118.849677, "lat": 31.965551, "address": "江苏省南京市江宁区文靖路80号" }, "geometry": { "type": "Point", "coordinates": [ 118.83800757392865, 31.961900038463138 ] } },
{ "type": "Feature", "properties": { "OBJECTID": 53, "name": "海润医药", "lng": 118.847041, "lat": 32.256849, "address": "崇福路与罐区南路交叉口东南150米" }, "geometry": { "type": "Point", "coordinates": [ 118.835385949639729, 32.253217928011132 ] } },
{ "type": "Feature", "properties": { "OBJECTID": 54, "name": "益钟大药房", "lng": 118.884315, "lat": 32.050242, "address": "江苏省南京市栖霞区顾家营路宏图上逸园" }, "geometry": { "type": "Point", "coordinates": [ 118.872714652280067, 32.046653443572595 ] } },
{ "type": "Feature", "properties": { "OBJECTID": 55, "name": "14556南京大参林(和悦街店)", "lng": 118.857159, "lat": 32.124654, "address": "江苏省南京市栖霞区和悦街8号、13号8号、14号" }, "geometry": { "type": "Point", "coordinates": [ 118.845499233453509, 32.121148465985158 ] } },
{ "type": "Feature", "properties": { "OBJECTID": 56, "name": "永康大药房(永阳店)", "lng": 119.037764, "lat": 31.657905, "address": "江苏省南京市溧水区珍珠南路8-102号" }, "geometry": { "type": "Point", "coordinates": [ 119.026061714133448, 31.653475857372584 ] } },
{ "type": "Feature", "properties": { "OBJECTID": 57, "name": "益丰大药房(南京三牌楼大街店)", "lng": 118.772885, "lat": 32.084859, "address": "江苏省南京市鼓楼区中央门街道三牌楼大街91-1号(苏果超市对面)" }, "geometry": { "type": "Point", "coordinates": [ 118.761123923661273, 32.080965637408603 ] } },
{ "type": "Feature", "properties": { "OBJECTID": 58, "name": "益丰大药房(珍珠路店)", "lng": 119.037722, "lat": 31.658291, "address": "南京市溧水区-珍珠南路8号108109室" }, "geometry": { "type": "Point", "coordinates": [ 119.026019683435322, 31.653862322272467 ] } },
{ "type": "Feature", "properties": { "OBJECTID": 59, "name": "先声再康药店(竹镇第二药店)", "lng": 118.687985, "lat": 32.511763, "address": "江苏省南京市六合区仕林路290号" }, "geometry": { "type": "Point", "coordinates": [ 118.676430625969971, 32.507555113165893 ] } },
{ "type": "Feature", "properties": { "OBJECTID": 60, "name": "乐一堂大药房(广志路药房)", "lng": 118.980259, "lat": 32.130527, "address": "江苏省南京市栖霞区广志路19-6号" }, "geometry": { "type": "Point", "coordinates": [ 118.968538330684211, 32.127008877469109 ] } },
{ "type": "Feature", "properties": { "OBJECTID": 61, "name": "大参林(玄武大道店)", "lng": 118.870303, "lat": 32.100117, "address": "南京市玄武区聚宝路阳光聚宝山庄" }, "geometry": { "type": "Point", "coordinates": [ 118.858638639686362, 32.096657159436482 ] } },
{ "type": "Feature", "properties": { "OBJECTID": 62, "name": "榕树家中医连锁(双龙大道店)", "lng": 118.838068, "lat": 31.899425, "address": "南京市江宁区双龙大道海尔曼斯集团" }, "geometry": { "type": "Point", "coordinates": [ 118.826469353921766, 31.895549524564302 ] } },
{ "type": "Feature", "properties": { "OBJECTID": 63, "name": "福佑大药房(金石路店)", "lng": 118.876303, "lat": 31.779706, "address": "江苏省南京市江宁区金石路" }, "geometry": { "type": "Point", "coordinates": [ 118.864713516899769, 31.77615545243302 ] } },
{ "type": "Feature", "properties": { "OBJECTID": 64, "name": "国和大药房", "lng": 118.835064, "lat": 32.025249, "address": "江苏省南京市秦淮区光华路石门坎110号" }, "geometry": { "type": "Point", "coordinates": [ 118.823460626383152, 32.021339936843553 ] } },
{ "type": "Feature", "properties": { "OBJECTID": 65, "name": "老百姓大药房(瑜璟湾店)", "lng": 118.831928, "lat": 32.112689, "address": "江苏省南京市栖霞区迈皋桥街道瑜憬湾19栋102室" }, "geometry": { "type": "Point", "coordinates": [ 118.820315113437005, 32.108732509648362 ] } },
{ "type": "Feature", "properties": { "OBJECTID": 66, "name": "上坝药店", "lng": 119.199383, "lat": 32.214775, "address": "江苏省南京市栖霞区镇西南路1号" }, "geometry": { "type": "Point", "coordinates": [ 119.187502141373315, 32.210819175544572 ] } },
{ "type": "Feature", "properties": { "OBJECTID": 67, "name": "高济先声再康药房(新亭路店)", "lng": 118.86091, "lat": 31.948898, "address": "南京市江宁区新亭路金色麦田幼儿园西北侧约30米" }, "geometry": { "type": "Point", "coordinates": [ 118.849232832797142, 31.945377482681305 ] } },
{ "type": "Feature", "properties": { "OBJECTID": 68, "name": "海王星辰健康药房(万达茂仙林大道店)", "lng": 118.991975, "lat": 32.126864, "address": "江苏省南京市栖霞区西岗街道守敬路9号万达茂商业中心9幢1层112-113室" }, "geometry": { "type": "Point", "coordinates": [ 118.980213010178204, 32.123316875219885 ] } },
{ "type": "Feature", "properties": { "OBJECTID": 69, "name": "嘉伦光彩大药房(招商街店)", "lng": 118.841473, "lat": 31.956493, "address": "江苏省南京市江宁区招商街12号" }, "geometry": { "type": "Point", "coordinates": [ 118.829821139314845, 31.952688847646968 ] } },
{ "type": "Feature", "properties": { "OBJECTID": 70, "name": "嘉伦光彩大药房(尧新药店)", "lng": 118.878763, "lat": 32.123425, "address": "江苏省南京市栖霞区尧新大道佳邻美居02幢6室" }, "geometry": { "type": "Point", "coordinates": [ 118.867148204829974, 32.119923633878827 ] } },
{ "type": "Feature", "properties": { "OBJECTID": 71, "name": "益丰大药房(天印大道二店)", "lng": 118.869674, "lat": 31.952756, "address": "江苏省南京市江宁区天印大道1178号" }, "geometry": { "type": "Point", "coordinates": [ 118.8580086261329, 31.949260645298491 ] } },
{ "type": "Feature", "properties": { "OBJECTID": 72, "name": "百信药房(金域蓝湾店)", "lng": 118.839948, "lat": 31.925157, "address": "江苏省南京市江宁区秣陵街道万科金域蓝湾东南185米处" }, "geometry": { "type": "Point", "coordinates": [ 118.828323452506766, 31.921320574408007 ] } },
{ "type": "Feature", "properties": { "OBJECTID": 73, "name": "康舟医药", "lng": 118.914817, "lat": 31.906048, "address": "江苏省南京市江宁区龙眠大道568号南京生命科技小镇北区1号楼2楼" }, "geometry": { "type": "Point", "coordinates": [ 118.903403270142178, 31.901944794846816 ] } },
{ "type": "Feature", "properties": { "OBJECTID": 74, "name": "益丰大药房(南京棠城西路店)", "lng": 118.845814, "lat": 32.351386, "address": "江苏省南京市六合区棠城西路140号" }, "geometry": { "type": "Point", "coordinates": [ 118.834138943851528, 32.34773320656582 ] } },
{ "type": "Feature", "properties": { "OBJECTID": 75, "name": "益丰大药房(亲水湾花园店)", "lng": 118.829492, "lat": 31.959092, "address": "江苏省南京市江宁区上元大街27号" }, "geometry": { "type": "Point", "coordinates": [ 118.817873942019418, 31.95504641736024 ] } },
{ "type": "Feature", "properties": { "OBJECTID": 76, "name": "益丰大药房(和悦街店)", "lng": 118.855257, "lat": 32.123666, "address": "江苏省南京市栖霞区迈皋桥街道和悦街10-5号" }, "geometry": { "type": "Point", "coordinates": [ 118.843597865402344, 32.120138513060837 ] } },
{ "type": "Feature", "properties": { "OBJECTID": 77, "name": "益丰大药房(守敬路店)", "lng": 118.991201, "lat": 32.138258, "address": "江苏省南京市栖霞区守敬路万科金色领域1-36号" }, "geometry": { "type": "Point", "coordinates": [ 118.979441605578245, 32.134719618686326 ] } },
{ "type": "Feature", "properties": { "OBJECTID": 78, "name": "南京龙腾药店(商业街店)", "lng": 118.864094, "lat": 32.342323, "address": "江苏省南京市六合区富民街88号" }, "geometry": { "type": "Point", "coordinates": [ 118.8523966709039, 32.338886999280952 ] } },
{ "type": "Feature", "properties": { "OBJECTID": 79, "name": "南京龙腾药店", "lng": 118.820678, "lat": 32.533494, "address": "江苏省南京市六合区马集人民路83号" }, "geometry": { "type": "Point", "coordinates": [ 118.809037976132245, 32.529338925303826 ] } },
{ "type": "Feature", "properties": { "OBJECTID": 80, "name": "益丰大药房(尧安新村店)", "lng": 118.886082, "lat": 32.123929, "address": "江苏省南京市栖霞区尧佳路9号" }, "geometry": { "type": "Point", "coordinates": [ 118.874504197539125, 32.120335966311508 ] } },
{ "type": "Feature", "properties": { "OBJECTID": 81, "name": "叮当智慧药房(樱铁村小区店)", "lng": 118.833861, "lat": 32.091831, "address": "江苏省南京市玄武区文西路樱铁村25幢" }, "geometry": { "type": "Point", "coordinates": [ 118.822224811483764, 32.087903889143114 ] } },
{ "type": "Feature", "properties": { "OBJECTID": 82, "name": "南京龙腾药店(姚庄店)", "lng": 118.901821, "lat": 32.264136, "address": "南京市六合区S247瓜埠客运站北侧约30米" }, "geometry": { "type": "Point", "coordinates": [ 118.890322090348988, 32.260293385527568 ] } },
{ "type": "Feature", "properties": { "OBJECTID": 83, "name": "嘉伦光彩大药房(陶苑店)", "lng": 118.903359, "lat": 31.891812, "address": "江苏省南京市江宁区齐武路2号" }, "geometry": { "type": "Point", "coordinates": [ 118.891902789819028, 31.887871022416345 ] } },
{ "type": "Feature", "properties": { "OBJECTID": 84, "name": "南京毓舫大药房", "lng": 118.859577, "lat": 32.020414, "address": "江苏省南京市秦淮区光华路街道紫杨佳园-北区" }, "geometry": { "type": "Point", "coordinates": [ 118.847929566479181, 32.016909609815862 ] } },
{ "type": "Feature", "properties": { "OBJECTID": 85, "name": "诚康大药房(天元中路药房店)", "lng": 118.846469, "lat": 31.936284, "address": "江苏省南京市江宁区天元中路99-04号" }, "geometry": { "type": "Point", "coordinates": [ 118.834815868870834, 31.932573147201289 ] } },
{ "type": "Feature", "properties": { "OBJECTID": 86, "name": "本德堂大药房云逸都荟花园店(科建路店)", "lng": 118.868576, "lat": 31.935336, "address": "江苏省南京市江宁区科建路408号" }, "geometry": { "type": "Point", "coordinates": [ 118.85691958860717, 31.931840487737123 ] } },
{ "type": "Feature", "properties": { "OBJECTID": 87, "name": "老百姓大药房(天印店)", "lng": 118.867505, "lat": 31.940853, "address": "南京市江宁区天元东路莱茵东郡花园-云栖苑" }, "geometry": { "type": "Point", "coordinates": [ 118.855841268409407, 31.937357442554866 ] } },
{ "type": "Feature", "properties": { "OBJECTID": 88, "name": "康之源大药房(华银路店)", "lng": 118.866839, "lat": 32.116452, "address": "江苏省南京市栖霞区华银路20号(丁家庄南地铁站2号口步行370米)" }, "geometry": { "type": "Point", "coordinates": [ 118.85518109462275, 32.113001359267315 ] } },
{ "type": "Feature", "properties": { "OBJECTID": 89, "name": "国仁源大药房", "lng": 118.857403, "lat": 32.137314, "address": "南京市栖霞区-燕子矶街道春树街8号、22号" }, "geometry": { "type": "Point", "coordinates": [ 118.845745220586437, 32.133814324593423 ] } },
{ "type": "Feature", "properties": { "OBJECTID": 90, "name": "康悦大药房", "lng": 118.954257, "lat": 32.154365, "address": "南京市栖霞区南京绕城高速凤翔小区东北侧约170米" }, "geometry": { "type": "Point", "coordinates": [ 118.942700149811927, 32.150527367187081 ] } },
{ "type": "Feature", "properties": { "OBJECTID": 91, "name": "益丰大药房(文峰路店)", "lng": 118.88376, "lat": 32.339279, "address": "南京市六合区文峰路灵岩花园" }, "geometry": { "type": "Point", "coordinates": [ 118.872127414652738, 32.335737118349932 ] } },
{ "type": "Feature", "properties": { "OBJECTID": 92, "name": "南京忠信大药房(石柱林路店)", "lng": 118.926199, "lat": 32.516917, "address": "江苏省南京市六合区石柱林路六合区冶山镇初级中学西侧约40米" }, "geometry": { "type": "Point", "coordinates": [ 118.914735372496139, 32.512797135374377 ] } },
{ "type": "Feature", "properties": { "OBJECTID": 93, "name": "龙腾药店(六合商厦长江路店)", "lng": 118.847381, "lat": 32.348722, "address": "长江路20号六合商厦F1" }, "geometry": { "type": "Point", "coordinates": [ 118.835699989247942, 32.345096673407028 ] } },
{ "type": "Feature", "properties": { "OBJECTID": 94, "name": "南京九天药房(新都店)", "lng": 118.834944, "lat": 32.327228, "address": "江苏省南京市六合区王桥路9号" }, "geometry": { "type": "Point", "coordinates": [ 118.823279970348224, 32.323352752749429 ] } },
{ "type": "Feature", "properties": { "OBJECTID": 95, "name": "筑康药房(秦淮大道店)", "lng": 119.052299, "lat": 31.683612, "address": "江苏省南京市溧水区秦淮大道3楼324室" }, "geometry": { "type": "Point", "coordinates": [ 119.040538027017675, 31.679121753377757 ] } },
{ "type": "Feature", "properties": { "OBJECTID": 96, "name": "益丰大药房(上元大街店)", "lng": 118.860055, "lat": 31.962399, "address": "江苏省南京市江宁区上元大街707号1幢1层门面房" }, "geometry": { "type": "Point", "coordinates": [ 118.848376005592925, 31.958875086354322 ] } },
{ "type": "Feature", "properties": { "OBJECTID": 97, "name": "国大药房(中骏东原璟阅店)", "lng": 119.087411, "lat": 32.19447, "address": "南京市栖霞区龙靖线龙誉花园西南侧约30米" }, "geometry": { "type": "Point", "coordinates": [ 119.07536317075558, 32.190541518936911 ] } },
{ "type": "Feature", "properties": { "OBJECTID": 98, "name": "康之悦大药房", "lng": 118.861352, "lat": 32.122116, "address": "江苏省南京市栖霞区华银路19号17栋" }, "geometry": { "type": "Point", "coordinates": [ 118.849691249988197, 32.11864575974456 ] } },
{ "type": "Feature", "properties": { "OBJECTID": 99, "name": "高济先声再康药房(龙池北路店)", "lng": 118.828753, "lat": 32.334932, "address": "六合区龙池北路龙池翠洲" }, "geometry": { "type": "Point", "coordinates": [ 118.817111117069615, 32.330935256135135 ] } },
{ "type": "Feature", "properties": { "OBJECTID": 100, "name": "星辰大海", "lng": 118.840135, "lat": 32.092562, "address": "南京市玄武区樱花路东方城-初阳园" }, "geometry": { "type": "Point", "coordinates": [ 118.828481134055167, 32.088763522718793 ] } },
{ "type": "Feature", "properties": { "OBJECTID": 101, "name": "南京九天药房(侍郎路一店)", "lng": 118.69269, "lat": 32.520275, "address": "江苏省南京市六合区龙扬路16号" }, "geometry": { "type": "Point", "coordinates": [ 118.681112309127741, 32.516071761263376 ] } },
{ "type": "Feature", "properties": { "OBJECTID": 102, "name": "御活堂", "lng": 118.851354, "lat": 31.955753, "address": "南京市江宁区竹山路东平雅苑" }, "geometry": { "type": "Point", "coordinates": [ 118.839680334805536, 31.952125479429412 ] } },
{ "type": "Feature", "properties": { "OBJECTID": 103, "name": "新海港大药房", "lng": 119.135634, "lat": 32.227014, "address": "江苏省南京市栖霞区靖安大道南京市营防中学东侧约70米" }, "geometry": { "type": "Point", "coordinates": [ 119.123650431537015, 32.222919941956839 ] } },
{ "type": "Feature", "properties": { "OBJECTID": 104, "name": "南京九天药房(新大街店)", "lng": 118.997044, "lat": 32.275176, "address": "江苏省南京市六合区新大街26号" }, "geometry": { "type": "Point", "coordinates": [ 118.985253673255798, 32.27159483633698 ] } },
{ "type": "Feature", "properties": { "OBJECTID": 105, "name": "筑康药房(湖熟菜场店)", "lng": 118.984145, "lat": 31.865697, "address": "江苏省南京市江宁区宝塔北路1号" }, "geometry": { "type": "Point", "coordinates": [ 118.972413628449885, 31.862121468118687 ] } },
{ "type": "Feature", "properties": { "OBJECTID": 106, "name": "一可药房(玉带滨江市场店)", "lng": 118.878117, "lat": 32.242512, "address": "江苏省南京市六合区皇厂河路滨江小学东南侧约200米" }, "geometry": { "type": "Point", "coordinates": [ 118.866487602302868, 32.239035257770439 ] } },
{ "type": "Feature", "properties": { "OBJECTID": 107, "name": "南京福生堂药房(银龙花园店)", "lng": 118.862138, "lat": 31.966037, "address": "江苏省南京市江宁区文靖路534号" }, "geometry": { "type": "Point", "coordinates": [ 118.850461264942879, 31.962528751990686 ] } },
{ "type": "Feature", "properties": { "OBJECTID": 108, "name": "南京佑民大药房(青龙市场街店)", "lng": 118.942632, "lat": 32.431994, "address": "江苏省南京市六合区八百大道264号-6号" }, "geometry": { "type": "Point", "coordinates": [ 118.931095509607971, 32.42798501111676 ] } },
{ "type": "Feature", "properties": { "OBJECTID": 109, "name": "南京九天药房(邹庄路店)", "lng": 118.883754, "lat": 32.295822, "address": "江苏省南京市六合区砂子沟商业街16~17号" }, "geometry": { "type": "Point", "coordinates": [ 118.87212260443583, 32.292278098852883 ] } },
{ "type": "Feature", "properties": { "OBJECTID": 110, "name": "南京九天药房(竹镇店)", "lng": 118.689868, "lat": 32.519419, "address": "江苏省南京市六合区仕林路299号" }, "geometry": { "type": "Point", "coordinates": [ 118.678300990655899, 32.515208491810341 ] } },
{ "type": "Feature", "properties": { "OBJECTID": 111, "name": "宜养堂·经络SPA养生馆(南京海乐城店)", "lng": 119.032337, "lat": 31.663241, "address": "交通西路海乐城4楼4021" }, "geometry": { "type": "Point", "coordinates": [ 119.020636104084758, 31.658884039706408 ] } },
{ "type": "Feature", "properties": { "OBJECTID": 112, "name": "好药师大药房(太龙路店)", "lng": 118.882359, "lat": 32.116542, "address": "江苏省南京市栖霞区尧化街道南京恒大云玺华庭" }, "geometry": { "type": "Point", "coordinates": [ 118.870756801061788, 32.112997353077979 ] } },
{ "type": "Feature", "properties": { "OBJECTID": 113, "name": "南京久龙堂药房(靖安大道店)", "lng": 119.13785, "lat": 32.226211, "address": "江苏省南京市栖霞区龙潭街道龙靖线禧乐苑南" }, "geometry": { "type": "Point", "coordinates": [ 119.12587957304136, 32.222077506152267 ] } },
{ "type": "Feature", "properties": { "OBJECTID": 114, "name": "康爱大药房(东城世家店)", "lng": 119.046494, "lat": 31.681398, "address": "江苏省南京市溧水区经济开发区机场路19号金东城世家西园二区49-50号" }, "geometry": { "type": "Point", "coordinates": [ 119.034756952815229, 31.676906160343254 ] } },
{ "type": "Feature", "properties": { "OBJECTID": 115, "name": "健安堂大药房(茉湖东路店)", "lng": 118.841922, "lat": 32.320901, "address": "茉湖东路18号10号S2幢30号" }, "geometry": { "type": "Point", "coordinates": [ 118.830235741550013, 32.317166849981341 ] } },
{ "type": "Feature", "properties": { "OBJECTID": 116, "name": "益丰大药房(专诸巷二店)", "lng": 118.849781, "lat": 32.345582, "address": "江苏省南京市六合区专诸巷30-22号" }, "geometry": { "type": "Point", "coordinates": [ 118.838092310429374, 32.341996370026017 ] } },
{ "type": "Feature", "properties": { "OBJECTID": 117, "name": "南京龙腾药店(白果路店)", "lng": 118.85816, "lat": 32.347963, "address": "江苏省南京市六合区白果路17-1号" }, "geometry": { "type": "Point", "coordinates": [ 118.846464769732577, 32.344487777122843 ] } },
{ "type": "Feature", "properties": { "OBJECTID": 118, "name": "博信药房", "lng": 118.896698, "lat": 32.25394, "address": "南京市六合区瓜北路太平北苑东北侧约200米" }, "geometry": { "type": "Point", "coordinates": [ 118.885172992595713, 32.250188276009759 ] } },
{ "type": "Feature", "properties": { "OBJECTID": 119, "name": "南京根康大药房", "lng": 118.987498, "lat": 31.870544, "address": "江苏省南京市江宁区灵顺北路125号" }, "geometry": { "type": "Point", "coordinates": [ 118.975759264215981, 31.866963741345188 ] } },
{ "type": "Feature", "properties": { "OBJECTID": 120, "name": "嘉伦光彩大药房(恒大绿洲店)", "lng": 118.848334, "lat": 31.920583, "address": "江苏省南京市江宁区清水亭东路158号恒大绿洲花园15幢114室" }, "geometry": { "type": "Point", "coordinates": [ 118.836693703023059, 31.916905534468512 ] } },
{ "type": "Feature", "properties": { "OBJECTID": 121, "name": "开开心心大药房(毛庄街店)", "lng": 118.734131, "lat": 32.390153, "address": "南京市六合区毛庄街编钟公寓" }, "geometry": { "type": "Point", "coordinates": [ 118.722329405850033, 32.386528695084465 ] } },
{ "type": "Feature", "properties": { "OBJECTID": 122, "name": "九天药房(龙海店)", "lng": 118.863719, "lat": 32.354383, "address": "江苏省南京市六合区园林东路99-10号" }, "geometry": { "type": "Point", "coordinates": [ 118.852031998096294, 32.350948622417853 ] } },
{ "type": "Feature", "properties": { "OBJECTID": 123, "name": "南京百年大药房(新华公寓店)", "lng": 118.933236, "lat": 31.901467, "address": "江苏省南京市江宁区高旺路新华公寓二期3栋1-2层(华优市集二楼西南第一间)" }, "geometry": { "type": "Point", "coordinates": [ 118.921823530550114, 31.89731151954684 ] } },
{ "type": "Feature", "properties": { "OBJECTID": 124, "name": "大参林大药房(云霞居店)", "lng": 118.955978, "lat": 32.166835, "address": "江苏省南京市栖霞区栖霞街道云霞居" }, "geometry": { "type": "Point", "coordinates": [ 118.94439563658608, 32.163025292037048 ] } },
{ "type": "Feature", "properties": { "OBJECTID": 125, "name": "先声再康(双学路店)", "lng": 118.854415, "lat": 32.352403, "address": "南京市六合区双学路聚福园东南侧约70米" }, "geometry": { "type": "Point", "coordinates": [ 118.842725906993977, 32.348886712862047 ] } },
{ "type": "Feature", "properties": { "OBJECTID": 126, "name": "南京川康大药房(龙海骏景店)", "lng": 118.867371, "lat": 32.345416, "address": "南京市六合区冶浦路灵冶公寓东南侧约110米" }, "geometry": { "type": "Point", "coordinates": [ 118.85568178253402, 32.341988631980691 ] } },
{ "type": "Feature", "properties": { "OBJECTID": 127, "name": "嘉伦光彩大药房(天麒路店)", "lng": 118.922056, "lat": 32.049563, "address": "南京市江宁区花港北路花港·幸福城-茉莉园" }, "geometry": { "type": "Point", "coordinates": [ 118.910621485127777, 32.045430192255509 ] } },
{ "type": "Feature", "properties": { "OBJECTID": 128, "name": "健鑫源药房", "lng": 119.080079, "lat": 32.188845, "address": "江苏省南京市栖霞区龙靖线龙岸花园008号" }, "geometry": { "type": "Point", "coordinates": [ 119.06807790275019, 32.184798025567858 ] } },
{ "type": "Feature", "properties": { "OBJECTID": 129, "name": "大参林大药房(积善堂店)", "lng": 118.99786, "lat": 32.151189, "address": "江苏省南京市栖霞区栖霞街道明秀秀山苑" }, "geometry": { "type": "Point", "coordinates": [ 118.986083957208166, 32.147581573771959 ] } },
{ "type": "Feature", "properties": { "OBJECTID": 130, "name": "医健林智慧大药房(金宝商业广场金箔路店)", "lng": 118.862122, "lat": 31.955677, "address": "江苏省南京市江宁区东山街道金宝商业广场(金箔路店)" }, "geometry": { "type": "Point", "coordinates": [ 118.850443616025316, 31.95216557626982 ] } },
{ "type": "Feature", "properties": { "OBJECTID": 131, "name": "大参林大药房(诚康殷巷店)", "lng": 118.841682, "lat": 31.916335, "address": "南京市江宁区集源街南京禅武道馆" }, "geometry": { "type": "Point", "coordinates": [ 118.830061998257264, 31.912533719826179 ] } },
{ "type": "Feature", "properties": { "OBJECTID": 132, "name": "海王星辰(科怡街店)", "lng": 118.835609, "lat": 31.863881, "address": "南京市江宁区科怡街恒大悦澜湾" }, "geometry": { "type": "Point", "coordinates": [ 118.823999502873292, 31.859941933315522 ] } },
{ "type": "Feature", "properties": { "OBJECTID": 133, "name": "江苏好药师大药房连锁有限公司(江苏九州通医药有限公司店)", "lng": 118.83901, "lat": 31.903887, "address": "江苏省南京市江宁区双龙大道2319号" }, "geometry": { "type": "Point", "coordinates": [ 118.827406933326174, 31.900031388251126 ] } },
{ "type": "Feature", "properties": { "OBJECTID": 134, "name": "健康人大药房(溧水康利华府店)", "lng": 119.046263, "lat": 31.64858, "address": "南京市溧水区秀园路康利华府" }, "geometry": { "type": "Point", "coordinates": [ 119.034542833323229, 31.644090960000167 ] } },
{ "type": "Feature", "properties": { "OBJECTID": 135, "name": "清源医药", "lng": 119.007844, "lat": 31.642076, "address": "南京市溧水区凤凰井路望景名府" }, "geometry": { "type": "Point", "coordinates": [ 118.996117831051635, 31.63821042325954 ] } },
{ "type": "Feature", "properties": { "OBJECTID": 136, "name": "益丰药房(珍珠南路店)", "lng": 119.039167, "lat": 31.646574, "address": "南京市溧水区珍珠南路东方新天地商业街" }, "geometry": { "type": "Point", "coordinates": [ 119.027461756155503, 31.642129415752244 ] } },
{ "type": "Feature", "properties": { "OBJECTID": 137, "name": "筑康药房(双塘路店)", "lng": 119.033137, "lat": 31.676561, "address": "南京市溧水区双塘路华美大酒店(双塘路店)西南侧" }, "geometry": { "type": "Point", "coordinates": [ 119.021426031683802, 31.672190178271791 ] } },
{ "type": "Feature", "properties": { "OBJECTID": 138, "name": "康爱大药房(双塘景苑店)", "lng": 119.032772, "lat": 31.668423, "address": "南京市溧水区永阳街道双塘路131号双塘景苑11幢101室" }, "geometry": { "type": "Point", "coordinates": [ 119.021068022760602, 31.664058906915884 ] } },
{ "type": "Feature", "properties": { "OBJECTID": 139, "name": "益丰大药房(东新北路店)", "lng": 118.857623, "lat": 31.964038, "address": "江苏省南京市江宁区东新北路81号" }, "geometry": { "type": "Point", "coordinates": [ 118.845944477555193, 31.96049266576177 ] } },
{ "type": "Feature", "properties": { "OBJECTID": 140, "name": "江苏德轩堂医药(集团)有限公司江宁智慧药房", "lng": 118.893795, "lat": 31.940897, "address": "南京市江宁区龙眠大道保利·樾广场西北侧约130米" }, "geometry": { "type": "Point", "coordinates": [ 118.882248834356531, 31.937127991054723 ] } },
{ "type": "Feature", "properties": { "OBJECTID": 141, "name": "鑫君药房(尧顺店)", "lng": 118.901099, "lat": 32.136873, "address": "南京市栖霞区尧顺路新城金郡" }, "geometry": { "type": "Point", "coordinates": [ 118.889609416153817, 32.133025367399974 ] } },
{ "type": "Feature", "properties": { "OBJECTID": 142, "name": "南京医药(东新南路店)", "lng": 118.860326, "lat": 31.956583, "address": "南京市江宁区东新南路桃园新居东北侧" }, "geometry": { "type": "Point", "coordinates": [ 118.848646565338825, 31.953059573852855 ] } },
{ "type": "Feature", "properties": { "OBJECTID": 143, "name": "保元堂(棠城西路店)", "lng": 118.844054, "lat": 32.351919, "address": "江苏省南京市六合区棠城西路178号" }, "geometry": { "type": "Point", "coordinates": [ 118.832383766624375, 32.348233361089981 ] } },
{ "type": "Feature", "properties": { "OBJECTID": 144, "name": "国丰大药房", "lng": 118.834895, "lat": 32.353396, "address": "南京市六合区长江路复兴园" }, "geometry": { "type": "Point", "coordinates": [ 118.823252087419064, 32.34952627162108 ] } },
{ "type": "Feature", "properties": { "OBJECTID": 145, "name": "猫空咖啡(尧化门店)", "lng": 118.89514, "lat": 32.128626, "address": "尧佳路68号新茂国际中心四楼" }, "geometry": { "type": "Point", "coordinates": [ 118.883616082312017, 32.124883108592684 ] } }
]
}
