{
"type": "FeatureCollection",
"name": "酒店",
"crs": { "type": "name", "properties": { "name": "urn:ogc:def:crs:OGC:1.3:CRS84" } },
"xy_coordinate_resolution": 1e-15,
"features": [
{ "type": "Feature", "properties": { "OBJECTID": 1, "name": "7天连锁酒店(南京长江大桥店)", "lng": 118.73933, "lat": 32.132303, "address": "江山路6号" }, "geometry": { "type": "Point", "coordinates": [ 118.727539154834247, 32.128701072047747 ] } },
{ "type": "Feature", "properties": { "OBJECTID": 2, "name": "布丁酒店(南京中山陵马群地铁站店)", "lng": 118.902154, "lat": 32.059582, "address": "马群新街100号" }, "geometry": { "type": "Point", "coordinates": [ 118.89064509360054, 32.055691271550948 ] } },
{ "type": "Feature", "properties": { "OBJECTID": 3, "name": "布丁酒店(南京南站北广场绿地之窗店)", "lng": 118.800545, "lat": 31.975746, "address": "江苏省南京市雨花台区锦绣街2号绿地之窗物业楼3层" }, "geometry": { "type": "Point", "coordinates": [ 118.78893824626735, 31.971448251056575 ] } },
{ "type": "Feature", "properties": { "OBJECTID": 4, "name": "易佰良品酒店(南京东南大学诚信大道地铁站店)", "lng": 118.837789, "lat": 31.914805, "address": "诚信大道988-8栋殷巷华润苏果超市4楼" }, "geometry": { "type": "Point", "coordinates": [ 118.826181410928527, 31.910924905611004 ] } },
{ "type": "Feature", "properties": { "OBJECTID": 5, "name": "南京白金汉爵大酒店", "lng": 118.897298, "lat": 32.108691, "address": "江苏省南京市栖霞区尧化街道智谷大道1号" }, "geometry": { "type": "Point", "coordinates": [ 118.885773169028866, 32.104901290532489 ] } },
{ "type": "Feature", "properties": { "OBJECTID": 6, "name": "7天酒店(南京紫金山景区蒋王庙地铁站店)", "lng": 118.833017, "lat": 32.082784, "address": "花园路1-58号" }, "geometry": { "type": "Point", "coordinates": [ 118.821378990186247, 32.078836469694195 ] } },
{ "type": "Feature", "properties": { "OBJECTID": 7, "name": "锦江之星(南京火车站玄武湖钟阜路地铁站店)", "lng": 118.782062, "lat": 32.097497, "address": "建宁路16号" }, "geometry": { "type": "Point", "coordinates": [ 118.770360243427149, 32.093444616568611 ] } },
{ "type": "Feature", "properties": { "OBJECTID": 8, "name": "蓝湾假日公寓(南京南站店)", "lng": 118.803432, "lat": 31.971145, "address": "江苏省南京市江宁区江南路5号万科都会天地B3栋114商铺" }, "geometry": { "type": "Point", "coordinates": [ 118.791829801256043, 31.966836521317656 ] } },
{ "type": "Feature", "properties": { "OBJECTID": 9, "name": "7天酒店(南京新街口常府街地铁站店)", "lng": 118.802081, "lat": 32.039784, "address": "常府街34标13号" }, "geometry": { "type": "Point", "coordinates": [ 118.790489000276295, 32.035499693839299 ] } },
{ "type": "Feature", "properties": { "OBJECTID": 10, "name": "布丁酒店(南京南站双龙大道地铁站店)", "lng": 118.823583, "lat": 31.972617, "address": "双龙大道577号" }, "geometry": { "type": "Point", "coordinates": [ 118.811983856198637, 31.968470361023087 ] } },
{ "type": "Feature", "properties": { "OBJECTID": 11, "name": "7天连锁酒店(南京鼓楼医院珠江路地铁站店)", "lng": 118.791508, "lat": 32.058097, "address": "珠江路同仁西街7号" }, "geometry": { "type": "Point", "coordinates": [ 118.779856678411477, 32.053893994110553 ] } },
{ "type": "Feature", "properties": { "OBJECTID": 12, "name": "微特尔酒店(南京夫子庙新街口店)", "lng": 118.798354, "lat": 32.037573, "address": "太平南路333号金陵御景园商务楼4层" }, "geometry": { "type": "Point", "coordinates": [ 118.786752697117421, 32.033306300536701 ] } },
{ "type": "Feature", "properties": { "OBJECTID": 13, "name": "维也纳国际(南京南站南广场店)", "lng": 118.81104, "lat": 31.973387, "address": "江苏省南京市雨花台区明城大道8号喜玛拉雅中心e座" }, "geometry": { "type": "Point", "coordinates": [ 118.799450649972542, 31.969096247919062 ] } },
{ "type": "Feature", "properties": { "OBJECTID": 14, "name": "南京高盛阁酒店(国际博览中心升龙汇金店)", "lng": 118.717446, "lat": 31.985144, "address": "江苏省南京市建邺区庐山路288号升龙汇金中心B栋2单元一楼" }, "geometry": { "type": "Point", "coordinates": [ 118.705764323325567, 31.981216498788818 ] } },
{ "type": "Feature", "properties": { "OBJECTID": 15, "name": "格林豪泰青皮树酒店(南京林业大学新庄地铁站店)", "lng": 118.824292, "lat": 32.082082, "address": "江苏省南京市玄武区锁金北路16号(林产化学研究所院内)" }, "geometry": { "type": "Point", "coordinates": [ 118.812675704116856, 32.077970269257939 ] } },
{ "type": "Feature", "properties": { "OBJECTID": 16, "name": "尚客优酒店(南京六合泰山路店)", "lng": 118.858201, "lat": 32.345409, "address": "雄州街道泰山路176号仁和商城" }, "geometry": { "type": "Point", "coordinates": [ 118.846503423361256, 32.341933474233194 ] } },
{ "type": "Feature", "properties": { "OBJECTID": 17, "name": "维也纳国际酒店(南京高淳地铁站店)", "lng": 118.895753, "lat": 31.333587, "address": "镇兴路189号" }, "geometry": { "type": "Point", "coordinates": [ 118.884278508274775, 31.329794375202606 ] } },
{ "type": "Feature", "properties": { "OBJECTID": 18, "name": "锦江之星(南京新街口店)", "lng": 118.791096, "lat": 32.039068, "address": "江苏省南京市秦淮区中山南路219号" }, "geometry": { "type": "Point", "coordinates": [ 118.779462736993636, 32.03487073806285 ] } },
{ "type": "Feature", "properties": { "OBJECTID": 19, "name": "南京中山大厦(金陵中学人民中学店)", "lng": 118.791185, "lat": 32.056039, "address": "中山路200号" }, "geometry": { "type": "Point", "coordinates": [ 118.779534065883155, 32.051839965401285 ] } },
{ "type": "Feature", "properties": { "OBJECTID": 20, "name": "半山园酒店(南京新街口店)", "lng": 118.794084, "lat": 32.038177, "address": "洪武路西方巷26号" }, "geometry": { "type": "Point", "coordinates": [ 118.782465316183618, 32.033945938712513 ] } },
{ "type": "Feature", "properties": { "OBJECTID": 21, "name": "布丁酒店(珠江路地铁站店)", "lng": 118.793459, "lat": 32.060063, "address": "江苏省南京市玄武区都司巷1号" }, "geometry": { "type": "Point", "coordinates": [ 118.781814922212675, 32.055837755447691 ] } },
{ "type": "Feature", "properties": { "OBJECTID": 22, "name": "维也纳国际酒店(南京竹山路地铁站店)", "lng": 118.857041, "lat": 31.936151, "address": "兴民南路66号" }, "geometry": { "type": "Point", "coordinates": [ 118.845373140022886, 31.932595387221713 ] } },
{ "type": "Feature", "properties": { "OBJECTID": 23, "name": "清沐酒店(南京江东北路省妇幼保健院店)", "lng": 118.746141, "lat": 32.069795, "address": "江东北路388号（正泰大厦）" }, "geometry": { "type": "Point", "coordinates": [ 118.734306301097078, 32.066190004311729 ] } },
{ "type": "Feature", "properties": { "OBJECTID": 24, "name": "格林豪泰(南京火车站中央门店)", "lng": 118.783616, "lat": 32.097117, "address": "建宁路16-6号" }, "geometry": { "type": "Point", "coordinates": [ 118.771922663361224, 32.093038226907602 ] } },
{ "type": "Feature", "properties": { "OBJECTID": 25, "name": "清沐酒店(南京五台山广州路随园大厦店)", "lng": 118.782749, "lat": 32.057039, "address": "江苏省南京市鼓楼区广州路140号" }, "geometry": { "type": "Point", "coordinates": [ 118.77105258995168, 32.05296558733906 ] } },
{ "type": "Feature", "properties": { "OBJECTID": 26, "name": "莫泰酒店(南京鼓楼地铁站店)", "lng": 118.786658, "lat": 32.071072, "address": "湖北路34-1号" }, "geometry": { "type": "Point", "coordinates": [ 118.774973671984881, 32.066936522198283 ] } },
{ "type": "Feature", "properties": { "OBJECTID": 27, "name": "维也纳酒店(南京浦口浦珠中路店)", "lng": 118.698289, "lat": 32.116235, "address": "浦珠中路209号" }, "geometry": { "type": "Point", "coordinates": [ 118.68672673990865, 32.112063294454778 ] } },
{ "type": "Feature", "properties": { "OBJECTID": 28, "name": "如家·neo(南京夫子庙集庆门店)", "lng": 118.776829, "lat": 32.025447, "address": "集庆门来凤街2号" }, "geometry": { "type": "Point", "coordinates": [ 118.765129519094913, 32.021478398783096 ] } },
{ "type": "Feature", "properties": { "OBJECTID": 29, "name": "清沐酒店(南京珠江路浮桥地铁站店)", "lng": 118.800256, "lat": 32.05507, "address": "珠江路350号" }, "geometry": { "type": "Point", "coordinates": [ 118.788642315072465, 32.050792000732706 ] } },
{ "type": "Feature", "properties": { "OBJECTID": 30, "name": "南京紫京饭店(钟山风景区龙湖紫金Mall店)", "lng": 118.870999, "lat": 32.04, "address": "孝陵卫晏公庙53号" }, "geometry": { "type": "Point", "coordinates": [ 118.859354065543272, 32.036528544253201 ] } },
{ "type": "Feature", "properties": { "OBJECTID": 31, "name": "尚客优精选酒店(南京雨山路地铁站滨江嘉园店)", "lng": 118.634123, "lat": 32.048955, "address": "滨江嘉园3-3" }, "geometry": { "type": "Point", "coordinates": [ 118.622509890220883, 32.045491016477506 ] } },
{ "type": "Feature", "properties": { "OBJECTID": 32, "name": "清沐酒店(南京龙江地铁站新城市广场店)", "lng": 118.748224, "lat": 32.060006, "address": "龙园西路15号" }, "geometry": { "type": "Point", "coordinates": [ 118.736394548596394, 32.056397743210205 ] } },
{ "type": "Feature", "properties": { "OBJECTID": 33, "name": "南京阿尔卡迪亚国际酒店(环龙池路店)", "lng": 118.819152, "lat": 32.335586, "address": "龙池街道环龙池路20号" }, "geometry": { "type": "Point", "coordinates": [ 118.807529403039368, 32.331431936743513 ] } },
{ "type": "Feature", "properties": { "OBJECTID": 34, "name": "南京东南大学榴园宾馆(玄武湖店)", "lng": 118.797997, "lat": 32.062437, "address": "进香河路38号" }, "geometry": { "type": "Point", "coordinates": [ 118.786369281423632, 32.058172029729057 ] } },
{ "type": "Feature", "properties": { "OBJECTID": 35, "name": "南京凤凰京华大酒店", "lng": 118.778145, "lat": 32.07292, "address": "山西路51号" }, "geometry": { "type": "Point", "coordinates": [ 118.766412501087075, 32.068928517970143 ] } },
{ "type": "Feature", "properties": { "OBJECTID": 36, "name": "如家·neo(南京夫子庙地铁站秦淮河店)", "lng": 118.798593, "lat": 32.027117, "address": "大石坝街48号" }, "geometry": { "type": "Point", "coordinates": [ 118.787001361263535, 32.02284853716624 ] } },
{ "type": "Feature", "properties": { "OBJECTID": 37, "name": "如家商旅酒店(南京火车站北广场玄武湖店)", "lng": 118.802417, "lat": 32.095371, "address": "红山南路89号1幢1-3楼" }, "geometry": { "type": "Point", "coordinates": [ 118.790804517808297, 32.091093485653609 ] } },
{ "type": "Feature", "properties": { "OBJECTID": 38, "name": "7天优品酒店(南京新街口地铁站店)", "lng": 118.793379, "lat": 32.046152, "address": "洪武路38号时尚莱迪·正洪大厦8楼" }, "geometry": { "type": "Point", "coordinates": [ 118.781748651206627, 32.041927977246928 ] } },
{ "type": "Feature", "properties": { "OBJECTID": 39, "name": "南京龙华大酒店", "lng": 118.648323, "lat": 32.076755, "address": "江浦街道龙华路2号" }, "geometry": { "type": "Point", "coordinates": [ 118.63672016725873, 32.073095110196689 ] } },
{ "type": "Feature", "properties": { "OBJECTID": 40, "name": "清沐酒店(南京新街口大洋百货丰富路店)", "lng": 118.787885, "lat": 32.043166, "address": "丰富路163号" }, "geometry": { "type": "Point", "coordinates": [ 118.776231238358477, 32.039011931604442 ] } },
{ "type": "Feature", "properties": { "OBJECTID": 41, "name": "夜泊蘭亭·媚香酒店(夫子庙秦淮河畔步行街店)", "lng": 118.79512, "lat": 32.024703, "address": "江苏省南京市秦淮区夫子庙大石坝街156号" }, "geometry": { "type": "Point", "coordinates": [ 118.783516576110429, 32.020461394454998 ] } },
{ "type": "Feature", "properties": { "OBJECTID": 42, "name": "维也纳国际酒店(南京南站河海大学地铁站店)", "lng": 118.798161, "lat": 31.925591, "address": "将军大道109号23幢" }, "geometry": { "type": "Point", "coordinates": [ 118.786561192655597, 31.921297793466756 ] } },
{ "type": "Feature", "properties": { "OBJECTID": 43, "name": "格林豪泰(南京玄武湖湖南路店)", "lng": 118.776727, "lat": 32.076376, "address": "中山北路215号" }, "geometry": { "type": "Point", "coordinates": [ 118.764985909496346, 32.07241080923982 ] } },
{ "type": "Feature", "properties": { "OBJECTID": 44, "name": "莫泰酒店(夫子庙地铁站店)", "lng": 118.799172, "lat": 32.025692, "address": "江苏省南京市秦淮区平江府路154号" }, "geometry": { "type": "Point", "coordinates": [ 118.787583202051877, 32.02141995556147 ] } },
{ "type": "Feature", "properties": { "OBJECTID": 45, "name": "南京青奥体育公园万信至格酒店", "lng": 118.670799, "lat": 32.074516, "address": "江苏省南京市浦口区兴隆路9号" }, "geometry": { "type": "Point", "coordinates": [ 118.659258635222642, 32.070427683026978 ] } },
{ "type": "Feature", "properties": { "OBJECTID": 46, "name": "清沐精选酒店(南京湖南路步行街玄武门地铁站店)", "lng": 118.783983, "lat": 32.076481, "address": "丁家桥2号" }, "geometry": { "type": "Point", "coordinates": [ 118.772282944791129, 32.072388898769738 ] } },
{ "type": "Feature", "properties": { "OBJECTID": 47, "name": "城中美家酒店(南京奥体中心新城科技园店)", "lng": 118.744825, "lat": 32.003051, "address": "嵩山路129号-1" }, "geometry": { "type": "Point", "coordinates": [ 118.733031325419546, 31.999439385057176 ] } },
{ "type": "Feature", "properties": { "OBJECTID": 48, "name": "格林豪泰(南京河海大学牛首山风景区店)", "lng": 118.783996, "lat": 31.899876, "address": "秣陵街道康平街6号6幢" }, "geometry": { "type": "Point", "coordinates": [ 118.772350377073664, 31.895754072020541 ] } },
{ "type": "Feature", "properties": { "OBJECTID": 49, "name": "清沐酒店(南京凤凰西街店)", "lng": 118.760786, "lat": 32.047393, "address": "凤凰西街163号" }, "geometry": { "type": "Point", "coordinates": [ 118.748989854209341, 32.043687726915991 ] } },
{ "type": "Feature", "properties": { "OBJECTID": 50, "name": "南京客好多酒店", "lng": 118.83329, "lat": 32.109981, "address": "江苏省南京市玄武区营苑北路17幢" }, "geometry": { "type": "Point", "coordinates": [ 118.821670867554985, 32.106050674335989 ] } },
{ "type": "Feature", "properties": { "OBJECTID": 51, "name": "格林豪泰酒店(南京鼓楼地铁站店)", "lng": 118.785158, "lat": 32.06933, "address": "中山北路49号" }, "geometry": { "type": "Point", "coordinates": [ 118.773466239745403, 32.065217634096648 ] } },
{ "type": "Feature", "properties": { "OBJECTID": 52, "name": "梧桐寓电竞影院公寓(南京溧水万达店)", "lng": 119.055915, "lat": 31.631664, "address": "江苏省南京市溧水区高平大街55号溧水万达公寓A座9栋1层106室" }, "geometry": { "type": "Point", "coordinates": [ 119.044144895299709, 31.627190755583971 ] } },
{ "type": "Feature", "properties": { "OBJECTID": 53, "name": "南京南站纳尔达斯大酒店", "lng": 118.827181, "lat": 31.970839, "address": "宏运大道1890号" }, "geometry": { "type": "Point", "coordinates": [ 118.815572952786894, 31.966754087634207 ] } },
{ "type": "Feature", "properties": { "OBJECTID": 54, "name": "清沐精选酒店(南京新街口杨公井店)", "lng": 118.797778, "lat": 32.042014, "address": "延龄巷2号" }, "geometry": { "type": "Point", "coordinates": [ 118.786169993634417, 32.037751028218679 ] } },
{ "type": "Feature", "properties": { "OBJECTID": 55, "name": "榴莲小星酒店(南京九竹路店)", "lng": 118.84031, "lat": 31.908574, "address": "九竹路8号" }, "geometry": { "type": "Point", "coordinates": [ 118.828700417220247, 31.904745133932018 ] } },
{ "type": "Feature", "properties": { "OBJECTID": 56, "name": "如家酒店·neo(南京林业大学花园路新庄地铁站店)", "lng": 118.827131, "lat": 32.089929, "address": "花园路28号（长途东站对面）" }, "geometry": { "type": "Point", "coordinates": [ 118.81551166860757, 32.085869848896813 ] } },
{ "type": "Feature", "properties": { "OBJECTID": 57, "name": "锦江都城酒店(南京东南大学店)", "lng": 118.843419, "lat": 31.91609, "address": "诚信大道719号" }, "geometry": { "type": "Point", "coordinates": [ 118.831794642213893, 31.912322791475241 ] } },
{ "type": "Feature", "properties": { "OBJECTID": 58, "name": "汉庭优佳酒店(南京仙林大学城仙尧路店)", "lng": 118.890401, "lat": 32.110177, "address": "仙尧路8号" }, "geometry": { "type": "Point", "coordinates": [ 118.878837466447933, 32.106509384405356 ] } },
{ "type": "Feature", "properties": { "OBJECTID": 59, "name": "凯里亚德酒店(南京虹桥中心店)", "lng": 118.768088, "lat": 32.083791, "address": "中山北路283号" }, "geometry": { "type": "Point", "coordinates": [ 118.756302063583178, 32.079980655032834 ] } },
{ "type": "Feature", "properties": { "OBJECTID": 60, "name": "如家精选酒店(南京夫子庙白下路店)", "lng": 118.80008, "lat": 32.034179, "address": "白下路264号桃源村大厦一楼大堂" }, "geometry": { "type": "Point", "coordinates": [ 118.788487699011199, 32.029902563922754 ] } },
{ "type": "Feature", "properties": { "OBJECTID": 61, "name": "清沐酒店(南京雨花台板桥梅山商业广场店)", "lng": 118.632705, "lat": 31.900686, "address": "板桥街道新建雄风路517号-1" }, "geometry": { "type": "Point", "coordinates": [ 118.621126309542348, 31.897204837790458 ] } },
{ "type": "Feature", "properties": { "OBJECTID": 62, "name": "如家·neo(南京桥北弘阳广场泰山新村地铁站店)", "lng": 118.721721, "lat": 32.15032, "address": "大桥北路89号" }, "geometry": { "type": "Point", "coordinates": [ 118.710010637013127, 32.146504492580938 ] } },
{ "type": "Feature", "properties": { "OBJECTID": 63, "name": "清沐酒店(南京莫愁湖地铁站店)", "lng": 118.768105, "lat": 32.045429, "address": "汉中门大街23号" }, "geometry": { "type": "Point", "coordinates": [ 118.756341052109889, 32.041614883318715 ] } },
{ "type": "Feature", "properties": { "OBJECTID": 64, "name": "希岸酒店(南京新街口夫子庙大行宫地铁站店)", "lng": 118.800455, "lat": 32.044403, "address": "江苏省南京市秦淮区太平南路107号(大行宫地铁站3口南320米路东)" }, "geometry": { "type": "Point", "coordinates": [ 118.788853340697244, 32.040124528770363 ] } },
{ "type": "Feature", "properties": { "OBJECTID": 65, "name": "南京悦客假日酒店", "lng": 118.848517, "lat": 32.126828, "address": "迈尧路396号" }, "geometry": { "type": "Point", "coordinates": [ 118.836868863711658, 32.123202582095061 ] } },
{ "type": "Feature", "properties": { "OBJECTID": 66, "name": "清沐精选酒店(南京汤山温泉园博园店)", "lng": 119.073984, "lat": 32.056024, "address": "汤山街道汤泉东路275号" }, "geometry": { "type": "Point", "coordinates": [ 119.062045398102555, 32.05184895699697 ] } },
{ "type": "Feature", "properties": { "OBJECTID": 67, "name": "清沐精选酒店(南京高淳地铁站镇兴路店)", "lng": 118.8936, "lat": 31.333323, "address": "江苏省南京市高淳区镇兴路208-7号" }, "geometry": { "type": "Point", "coordinates": [ 118.882113527679095, 31.329568875742829 ] } },
{ "type": "Feature", "properties": { "OBJECTID": 68, "name": "汉庭酒店(南京江浦龙华路地铁站店)", "lng": 118.642471, "lat": 32.071649, "address": "江浦街道龙华路26号金盛田铂宫07幢" }, "geometry": { "type": "Point", "coordinates": [ 118.630853545233734, 32.068086882793089 ] } },
{ "type": "Feature", "properties": { "OBJECTID": 69, "name": "南京南钢宾馆", "lng": 118.741087, "lat": 32.20755, "address": "大厂湖滨路1号" }, "geometry": { "type": "Point", "coordinates": [ 118.729249594681733, 32.203960397815372 ] } },
{ "type": "Feature", "properties": { "OBJECTID": 70, "name": "锦江都城酒店(南京南站中心店)", "lng": 118.808097, "lat": 31.971291, "address": "金兰路6号绿地城际空间站B2幢2－2号楼" }, "geometry": { "type": "Point", "coordinates": [ 118.796503464128634, 31.96698601941597 ] } },
{ "type": "Feature", "properties": { "OBJECTID": 71, "name": "如家酒店(南京中山陵景区苜蓿园大街店)", "lng": 118.838209, "lat": 32.035244, "address": "苜蓿园大街88号锦湖大厦" }, "geometry": { "type": "Point", "coordinates": [ 118.826588777561852, 32.031399920064366 ] } },
{ "type": "Feature", "properties": { "OBJECTID": 72, "name": "如家酒店·neo(南京溧水万达广场店)", "lng": 119.055691, "lat": 31.63136, "address": "永阳镇高平大街55号" }, "geometry": { "type": "Point", "coordinates": [ 119.043921759620545, 31.626885223160809 ] } },
{ "type": "Feature", "properties": { "OBJECTID": 73, "name": "汉庭酒店(南京江宁滨江开发区店)", "lng": 118.611452, "lat": 31.861639, "address": "滨江开发区盛江G205商业街02栋" }, "geometry": { "type": "Point", "coordinates": [ 118.599888564924242, 31.858068623664199 ] } },
{ "type": "Feature", "properties": { "OBJECTID": 74, "name": "南京正恒公寓酒店(凤翔山庄铁心桥地铁站店)", "lng": 118.767825, "lat": 31.966768, "address": "铁心桥大街蓝岸3G36号" }, "geometry": { "type": "Point", "coordinates": [ 118.756050189479595, 31.962935902277763 ] } },
{ "type": "Feature", "properties": { "OBJECTID": 75, "name": "南京夫子庙天湖假日酒店", "lng": 118.807032, "lat": 32.017805, "address": "红花村160号" }, "geometry": { "type": "Point", "coordinates": [ 118.795465539062448, 32.01351690468406 ] } },
{ "type": "Feature", "properties": { "OBJECTID": 76, "name": "格林豪泰酒店(百家湖科技产业园九龙湖地铁站店)", "lng": 118.838193, "lat": 31.923972, "address": "殷华街28号" }, "geometry": { "type": "Point", "coordinates": [ 118.826574753413709, 31.920099877130447 ] } },
{ "type": "Feature", "properties": { "OBJECTID": 77, "name": "汉庭酒店(南京东南大学诚信大道地铁站店)", "lng": 118.840532, "lat": 31.914894, "address": "江苏省南京市江宁区诚信大道990号" }, "geometry": { "type": "Point", "coordinates": [ 118.828916539654884, 31.911069732080787 ] } },
{ "type": "Feature", "properties": { "OBJECTID": 78, "name": "汉庭优佳酒店(南京新街口地铁站店)", "lng": 118.794208, "lat": 32.04365, "address": "洪武路135号5层" }, "geometry": { "type": "Point", "coordinates": [ 118.782584031343546, 32.039417481560349 ] } },
{ "type": "Feature", "properties": { "OBJECTID": 79, "name": "南京丁山花园大酒店", "lng": 118.757193, "lat": 32.082412, "address": "江苏省南京市鼓楼区挹江门街道察哈尔路90号丁山花园酒店B1楼(近虎踞北路)" }, "geometry": { "type": "Point", "coordinates": [ 118.745366356135193, 32.078751037246477 ] } },
{ "type": "Feature", "properties": { "OBJECTID": 80, "name": "如家商旅酒店(南京雄州地铁站金宁广场店)", "lng": 118.848771, "lat": 32.346404, "address": "龙津路8-301号" }, "geometry": { "type": "Point", "coordinates": [ 118.83708498196151, 32.342801941829642 ] } },
{ "type": "Feature", "properties": { "OBJECTID": 81, "name": "全季酒店(南京六合龙池地铁站店)", "lng": 118.827116, "lat": 32.324512, "address": "江苏省南京市六合区雄州南路333号1-4楼" }, "geometry": { "type": "Point", "coordinates": [ 118.815472308479613, 32.320482693049641 ] } },
{ "type": "Feature", "properties": { "OBJECTID": 82, "name": "如家商旅酒店(南京夫子庙地铁站景区店)", "lng": 118.797699, "lat": 32.028887, "address": "江苏省南京市秦淮区平江府路18号" }, "geometry": { "type": "Point", "coordinates": [ 118.786102977382299, 32.024624601848309 ] } },
{ "type": "Feature", "properties": { "OBJECTID": 83, "name": "怡莱酒店(南京中山陵风景区店)", "lng": 118.857802, "lat": 32.043502, "address": "中山门大街99号-7幢109-114室" }, "geometry": { "type": "Point", "coordinates": [ 118.846136161334599, 32.039982171280421 ] } },
{ "type": "Feature", "properties": { "OBJECTID": 84, "name": "南京工业大学科苑宾馆", "lng": 118.782312, "lat": 32.08387, "address": "新模范马路30号（距地铁1号线新模范马路站1号出口600米" }, "geometry": { "type": "Point", "coordinates": [ 118.770603521557604, 32.079807927412212 ] } },
{ "type": "Feature", "properties": { "OBJECTID": 85, "name": "清沐精选酒店(南京江宁陶吴镇店)", "lng": 118.782779, "lat": 31.780992, "address": "横溪街道陶吴社区狮子山44号" }, "geometry": { "type": "Point", "coordinates": [ 118.771137152029013, 31.776868185613392 ] } },
{ "type": "Feature", "properties": { "OBJECTID": 86, "name": "国仕达酒店(南京新街口德基广场店)", "lng": 118.789875, "lat": 32.051085, "address": "江苏省南京市鼓楼区管家桥36号" }, "geometry": { "type": "Point", "coordinates": [ 118.778222726096203, 32.046902904719417 ] } },
{ "type": "Feature", "properties": { "OBJECTID": 87, "name": "格林豪泰快捷酒店(南京秦淮区新街口地铁站店)", "lng": 118.790961, "lat": 32.042026, "address": "江苏省南京市秦淮区中山南路101号" }, "geometry": { "type": "Point", "coordinates": [ 118.779323949363473, 32.037830315338446 ] } },
{ "type": "Feature", "properties": { "OBJECTID": 88, "name": "如家睿柏·云酒店(南京众彩物流美食广场店)", "lng": 118.899461, "lat": 31.993206, "address": "东麒路66号" }, "geometry": { "type": "Point", "coordinates": [ 118.887963201220956, 31.989353054901052 ] } },
{ "type": "Feature", "properties": { "OBJECTID": 89, "name": "汉庭酒店(南京仙鹤门紫东商业街店)", "lng": 118.915442, "lat": 32.086419, "address": "紫东路2号G3栋" }, "geometry": { "type": "Point", "coordinates": [ 118.903980857113467, 32.082340979890319 ] } },
{ "type": "Feature", "properties": { "OBJECTID": 90, "name": "南京榴莲芒果酒店公寓", "lng": 118.705842, "lat": 32.165508, "address": "南京市浦口区丽新路龙湖江北天街" }, "geometry": { "type": "Point", "coordinates": [ 118.694222769768487, 32.161431405504267 ] } },
{ "type": "Feature", "properties": { "OBJECTID": 91, "name": "汉庭酒店(南京上元门地铁站店)", "lng": 118.779092, "lat": 32.121751, "address": "江苏省南京市鼓楼区中央北路270号" }, "geometry": { "type": "Point", "coordinates": [ 118.767393633475365, 32.11776169845723 ] } },
{ "type": "Feature", "properties": { "OBJECTID": 92, "name": "如家酒店(南京上海路地铁站汉中路店)", "lng": 118.778829, "lat": 32.048321, "address": "汉中路159号" }, "geometry": { "type": "Point", "coordinates": [ 118.767119385968371, 32.044316325805362 ] } },
{ "type": "Feature", "properties": { "OBJECTID": 93, "name": "如家商旅酒店(南京龙湾天街竹山路地铁站店)", "lng": 118.85261, "lat": 31.939085, "address": "竹山路429号金钥匙大厦" }, "geometry": { "type": "Point", "coordinates": [ 118.840943228711154, 31.935474056669438 ] } },
{ "type": "Feature", "properties": { "OBJECTID": 94, "name": "梵居酒店式公寓(南京南站天隆寺地铁站店)", "lng": 118.77147, "lat": 31.985696, "address": "江苏省南京市雨花台区软件大道109号雨花客厅6栋" }, "geometry": { "type": "Point", "coordinates": [ 118.759727625890051, 31.981810043030798 ] } },
{ "type": "Feature", "properties": { "OBJECTID": 95, "name": "南京天禧酒店(绿地之窗店)", "lng": 118.798668, "lat": 31.976235, "address": "江苏省南京市雨花台区绿都大道13号" }, "geometry": { "type": "Point", "coordinates": [ 118.787055557896679, 31.971947415227852 ] } },
{ "type": "Feature", "properties": { "OBJECTID": 96, "name": "汉庭酒店(南京山西路店)", "lng": 118.772179, "lat": 32.074756, "address": "山西路水佐岗老菜市8号" }, "geometry": { "type": "Point", "coordinates": [ 118.760413089941423, 32.070872536415351 ] } },
{ "type": "Feature", "properties": { "OBJECTID": 97, "name": "白玉兰酒店(南京河海大学牛首山店)", "lng": 118.788534, "lat": 31.913946, "address": "金智路11号" }, "geometry": { "type": "Point", "coordinates": [ 118.776903847565166, 31.909755445689786 ] } },
{ "type": "Feature", "properties": { "OBJECTID": 98, "name": "汉庭优佳酒店(南京龙江定淮门大街店)", "lng": 118.744029, "lat": 32.073462, "address": "江东北路417号" }, "geometry": { "type": "Point", "coordinates": [ 118.732195534663688, 32.069856005825223 ] } },
{ "type": "Feature", "properties": { "OBJECTID": 99, "name": "驿居(金牌)-苏州吴江步行街店(南京五塘广场地铁站店)", "lng": 118.7866, "lat": 32.117971, "address": "幕府东路9号" }, "geometry": { "type": "Point", "coordinates": [ 118.774941108271292, 32.113854345174666 ] } },
{ "type": "Feature", "properties": { "OBJECTID": 100, "name": "如家酒店(南京中山陵景区银城东苑店)", "lng": 118.851121, "lat": 32.033697, "address": "东苑路10号" }, "geometry": { "type": "Point", "coordinates": [ 118.839471391056946, 32.030092242960734 ] } },
{ "type": "Feature", "properties": { "OBJECTID": 101, "name": "汉庭酒店(南京江宁牛首山店)", "lng": 118.774368, "lat": 31.899896, "address": "水长街8号禾浩大厦" }, "geometry": { "type": "Point", "coordinates": [ 118.762668351126223, 31.895943948766401 ] } },
{ "type": "Feature", "properties": { "OBJECTID": 102, "name": "机场宾馆(南京夫子庙店)", "lng": 118.806995, "lat": 32.026143, "address": "龙蟠中路451号" }, "geometry": { "type": "Point", "coordinates": [ 118.79542515958039, 32.021856045726693 ] } },
{ "type": "Feature", "properties": { "OBJECTID": 103, "name": "如家派柏·云酒店(南京禄口国际机场铜山地铁站店)", "lng": 118.886441, "lat": 31.695837, "address": "禄口街道铜山金航大道288号" }, "geometry": { "type": "Point", "coordinates": [ 118.87487933068644, 31.692150463494269 ] } },
{ "type": "Feature", "properties": { "OBJECTID": 104, "name": "星程酒店(南京葛塘地铁站店)", "lng": 118.765004, "lat": 32.254259, "address": "江苏省南京市六合区平顶山路898号" }, "geometry": { "type": "Point", "coordinates": [ 118.753224923721859, 32.250535958877251 ] } },
{ "type": "Feature", "properties": { "OBJECTID": 105, "name": "如家酒店(南京博物院解放路店)", "lng": 118.816311, "lat": 32.040936, "address": "解放路44号" }, "geometry": { "type": "Point", "coordinates": [ 118.804732558270786, 32.036709899380497 ] } },
{ "type": "Feature", "properties": { "OBJECTID": 106, "name": "如家酒店·neo(南京上海路地铁站朝天宫店)", "lng": 118.778898, "lat": 32.045108, "address": "侯家桥41号" }, "geometry": { "type": "Point", "coordinates": [ 118.767192318992429, 32.041102245728133 ] } },
{ "type": "Feature", "properties": { "OBJECTID": 107, "name": "海友酒店(南京南站胜太路地铁站店)", "lng": 118.83309, "lat": 31.95072, "address": "庄排路1号" }, "geometry": { "type": "Point", "coordinates": [ 118.821463347438396, 31.946743883872145 ] } },
{ "type": "Feature", "properties": { "OBJECTID": 108, "name": "东航华美达酒店(南京机场店)", "lng": 118.895172, "lat": 31.749585, "address": "禄口国际机场东航江苏基地内" }, "geometry": { "type": "Point", "coordinates": [ 118.883668262702983, 31.74576067734078 ] } },
{ "type": "Feature", "properties": { "OBJECTID": 109, "name": "清沐精选酒店(江浦文德路地铁站店)", "lng": 118.632562, "lat": 32.06282, "address": "江苏省南京市浦口区文德路28号悦享城F1层" }, "geometry": { "type": "Point", "coordinates": [ 118.620934609057372, 32.059367607049452 ] } },
{ "type": "Feature", "properties": { "OBJECTID": 110, "name": "花季酒店(南京夫子庙地铁站店)", "lng": 118.802569, "lat": 32.030868, "address": "建康路409号-1" }, "geometry": { "type": "Point", "coordinates": [ 118.790986671011723, 32.026582413411425 ] } },
{ "type": "Feature", "properties": { "OBJECTID": 111, "name": "速8酒店(南京金陵总统府店)", "lng": 118.806202, "lat": 32.046808, "address": "中山东路412号冶金大厦" }, "geometry": { "type": "Point", "coordinates": [ 118.794611515155623, 32.04251975364361 ] } },
{ "type": "Feature", "properties": { "OBJECTID": 112, "name": "南京河海大学地铁站锦江都城酒店(南京将军大道河海大学店)", "lng": 118.798192, "lat": 31.924614, "address": "将军大道109号南楼" }, "geometry": { "type": "Point", "coordinates": [ 118.786593377654143, 31.920320636843631 ] } },
{ "type": "Feature", "properties": { "OBJECTID": 113, "name": "陸屿设计师酒店公寓(国际博览中心升龙汇金店)", "lng": 118.717039, "lat": 31.985886, "address": "江苏省南京市建邺区庐山路288号升龙汇金中心1号楼" }, "geometry": { "type": "Point", "coordinates": [ 118.705360755631503, 31.981951889355692 ] } },
{ "type": "Feature", "properties": { "OBJECTID": 114, "name": "古南都逸居酒店(南京夫子庙景区店)", "lng": 118.793568, "lat": 32.028643, "address": "夫子庙状元境59号" }, "geometry": { "type": "Point", "coordinates": [ 118.781955470717435, 32.02441716053017 ] } },
{ "type": "Feature", "properties": { "OBJECTID": 115, "name": "汉庭酒店(南京经五路弘阳家居城店)", "lng": 118.840457, "lat": 32.114448, "address": "经五路壹城西区55幢" }, "geometry": { "type": "Point", "coordinates": [ 118.828821003337282, 32.110666161048123 ] } },
{ "type": "Feature", "properties": { "OBJECTID": 116, "name": "南京怡悦商务宾馆(谷里工业园店)", "lng": 118.697909, "lat": 31.876302, "address": "江苏省南京市江宁区庆缘北路68号" }, "geometry": { "type": "Point", "coordinates": [ 118.686370000400444, 31.872073669896519 ] } },
{ "type": "Feature", "properties": { "OBJECTID": 117, "name": "云酒店(南京总统府东部战区总医院店)", "lng": 118.809373, "lat": 32.047366, "address": "江苏省南京市玄武区中山东路297号" }, "geometry": { "type": "Point", "coordinates": [ 118.797786218429422, 32.04308646788612 ] } },
{ "type": "Feature", "properties": { "OBJECTID": 118, "name": "金元宝大酒店(南京湖熟店)", "lng": 118.977297, "lat": 31.880352, "address": "瑞泽路8号金宝湖熟商业广场" }, "geometry": { "type": "Point", "coordinates": [ 118.96560970689012, 31.876763130938816 ] } },
{ "type": "Feature", "properties": { "OBJECTID": 119, "name": "南京水秀苑大酒店", "lng": 118.81743, "lat": 31.94267, "address": "百家湖佳湖西路11号" }, "geometry": { "type": "Point", "coordinates": [ 118.805839672838971, 31.938428634211206 ] } },
{ "type": "Feature", "properties": { "OBJECTID": 120, "name": "佑伊酒店(南京新城市广场龙江地铁站店)", "lng": 118.747358, "lat": 32.071212, "address": "定淮门大街8号" }, "geometry": { "type": "Point", "coordinates": [ 118.735521981061765, 32.067606205606324 ] } },
{ "type": "Feature", "properties": { "OBJECTID": 121, "name": "麗枫酒店(南京溧水无想水镇万达广场店)", "lng": 119.055694, "lat": 31.633446, "address": "永阳镇高平大街55号万达广场6幢" }, "geometry": { "type": "Point", "coordinates": [ 119.043926543341215, 31.628971775916234 ] } },
{ "type": "Feature", "properties": { "OBJECTID": 122, "name": "格美酒店(南京艺术学院草场门地铁站店)", "lng": 118.758074, "lat": 32.065163, "address": "江苏省南京市鼓楼区石头城81号" }, "geometry": { "type": "Point", "coordinates": [ 118.746253176922806, 32.061489618973816 ] } },
{ "type": "Feature", "properties": { "OBJECTID": 123, "name": "肯定连锁宾馆(龙眠大道地铁站店)", "lng": 118.886749, "lat": 31.946623, "address": "高新园天元东路941号" }, "geometry": { "type": "Point", "coordinates": [ 118.875158567266411, 31.942971771763109 ] } },
{ "type": "Feature", "properties": { "OBJECTID": 124, "name": "清沐酒店(南京丹凤街恒基公寓店)", "lng": 118.79339, "lat": 32.060169, "address": "丹凤街19号恒基中心公寓3楼301室" }, "geometry": { "type": "Point", "coordinates": [ 118.781745526958815, 32.055944494848596 ] } },
{ "type": "Feature", "properties": { "OBJECTID": 125, "name": "南京金竹园宾馆", "lng": 119.035421, "lat": 31.664224, "address": "交通路33-113号" }, "geometry": { "type": "Point", "coordinates": [ 119.023718535537313, 31.659822874594244 ] } },
{ "type": "Feature", "properties": { "OBJECTID": 126, "name": "海明威精品酒店公寓(南京天隆寺地铁站店)", "lng": 118.771645, "lat": 31.984904, "address": "软件大道109号雨花客厅5栋1楼" }, "geometry": { "type": "Point", "coordinates": [ 118.759902814953847, 31.981014549843184 ] } },
{ "type": "Feature", "properties": { "OBJECTID": 127, "name": "江苏辰茂新世纪大酒店", "lng": 118.806859, "lat": 32.090059, "address": "江苏省南京市玄武区龙蟠中路133号(近火车站)" }, "geometry": { "type": "Point", "coordinates": [ 118.795252224410504, 32.08577753391932 ] } },
{ "type": "Feature", "properties": { "OBJECTID": 128, "name": "古南都逸居酒店(南京新街口总统府店)", "lng": 118.80046, "lat": 32.043024, "address": "江苏省南京市秦淮区太平南路171-2号号" }, "geometry": { "type": "Point", "coordinates": [ 118.788859865479466, 32.038745570490228 ] } },
{ "type": "Feature", "properties": { "OBJECTID": 129, "name": "禧樾酒店", "lng": 118.810968, "lat": 31.935412, "address": "天元西路146号" }, "geometry": { "type": "Point", "coordinates": [ 118.799384700705971, 31.931112881771519 ] } },
{ "type": "Feature", "properties": { "OBJECTID": 130, "name": "汉庭优佳酒店(南京仙鹤门店)", "lng": 118.904281, "lat": 32.098301, "address": "仙鹤门二号路1号仙居雅苑60号综合楼" }, "geometry": { "type": "Point", "coordinates": [ 118.892784562331087, 32.094383579976068 ] } },
{ "type": "Feature", "properties": { "OBJECTID": 131, "name": "非繁城品酒店(南京仙林大学城店)", "lng": 118.913984, "lat": 32.098965, "address": "仙隐北路12号亚东商业广场A8-2" }, "geometry": { "type": "Point", "coordinates": [ 118.902527317784603, 32.094908057747944 ] } },
{ "type": "Feature", "properties": { "OBJECTID": 132, "name": "南京武家嘴国际大酒店", "lng": 118.901658, "lat": 31.340294, "address": "北岭路287号" }, "geometry": { "type": "Point", "coordinates": [ 118.890209593051594, 31.336392015252809 ] } },
{ "type": "Feature", "properties": { "OBJECTID": 133, "name": "柚子公寓(南京招商花园城店)", "lng": 118.839706, "lat": 32.129878, "address": "寅春西路与怡宁路交叉口招商1872-ipark公寓1号楼1324室" }, "geometry": { "type": "Point", "coordinates": [ 118.828080782290371, 32.126086744181826 ] } },
{ "type": "Feature", "properties": { "OBJECTID": 134, "name": "世纪缘精品酒店(南京夫子庙水西门大街店)", "lng": 118.777698, "lat": 32.036858, "address": "莫愁路81号" }, "geometry": { "type": "Point", "coordinates": [ 118.765994267492118, 32.032874103738571 ] } },
{ "type": "Feature", "properties": { "OBJECTID": 135, "name": "如家睿柏·云酒店(南京夫子庙景区步行街店)", "lng": 118.796831, "lat": 32.025339, "address": "大石坝街71号" }, "geometry": { "type": "Point", "coordinates": [ 118.785234032292735, 32.021082787175203 ] } },
{ "type": "Feature", "properties": { "OBJECTID": 136, "name": "南京住呗公寓(招商花园城万寿地铁站店)", "lng": 118.839885, "lat": 32.129779, "address": "迈皋桥街道怡静路4号925室" }, "geometry": { "type": "Point", "coordinates": [ 118.828259250183493, 32.125991345123445 ] } },
{ "type": "Feature", "properties": { "OBJECTID": 137, "name": "南京鸿禾宾馆", "lng": 118.848277, "lat": 31.971012, "address": "江苏省南京市江宁区文靖路文华街76号" }, "geometry": { "type": "Point", "coordinates": [ 118.836613040031864, 31.967339846670953 ] } },
{ "type": "Feature", "properties": { "OBJECTID": 138, "name": "南京引体向上酒店式公寓(国际博览中心升龙汇金店)", "lng": 118.717011, "lat": 31.985986, "address": "庐山路288号汇金中心1栋103室" }, "geometry": { "type": "Point", "coordinates": [ 118.705333036922809, 31.98205145919572 ] } },
{ "type": "Feature", "properties": { "OBJECTID": 139, "name": "南京永乐臻选美居(星火路地铁站龙湖江北天街店)", "lng": 118.705358, "lat": 32.164926, "address": "江苏省南京市浦口区文景路99号北宸星座2号门5幢1425室" }, "geometry": { "type": "Point", "coordinates": [ 118.693742440193944, 32.160842700912227 ] } },
{ "type": "Feature", "properties": { "OBJECTID": 140, "name": "八艺空间酒店(南京江宁大学城店)", "lng": 118.900263, "lat": 31.89501, "address": "江苏省南京市江宁区弘景大道3666号南京传媒学院三号门向北300米接待楼" }, "geometry": { "type": "Point", "coordinates": [ 118.888790601561723, 31.891123880013378 ] } },
{ "type": "Feature", "properties": { "OBJECTID": 141, "name": "雨花精品酒店式公寓(南京天隆寺地铁站店)", "lng": 118.771367, "lat": 31.986277, "address": "江苏省南京市雨花台区软件大道109号5栋" }, "geometry": { "type": "Point", "coordinates": [ 118.759624621987768, 31.982393153915993 ] } },
{ "type": "Feature", "properties": { "OBJECTID": 142, "name": "格菲酒店(南京江宁天印大道地铁站店)", "lng": 118.871912, "lat": 31.948104, "address": "天印大道1369号广博苑02幢" }, "geometry": { "type": "Point", "coordinates": [ 118.860254682043035, 31.944602034356084 ] } },
{ "type": "Feature", "properties": { "OBJECTID": 143, "name": "南京鼓楼晶丽酒店", "lng": 118.785782, "lat": 32.064966, "address": "北京西路7号" }, "geometry": { "type": "Point", "coordinates": [ 118.774096007929643, 32.060843361848065 ] } },
{ "type": "Feature", "properties": { "OBJECTID": 144, "name": "大地君悦酒店(南京总统府大行宫地铁站店)", "lng": 118.798428, "lat": 32.045698, "address": "延龄巷111号" }, "geometry": { "type": "Point", "coordinates": [ 118.786818274985791, 32.041430508894251 ] } },
{ "type": "Feature", "properties": { "OBJECTID": 145, "name": "金英酒店(南京晓庄地铁站店)", "lng": 118.826117, "lat": 32.12056, "address": "迈皋桥街道合班村69号名都花园07栋11室" }, "geometry": { "type": "Point", "coordinates": [ 118.814525039600483, 32.116496369870383 ] } },
{ "type": "Feature", "properties": { "OBJECTID": 146, "name": "南京海铭远酒店公寓", "lng": 118.743818, "lat": 32.036181, "address": "万达广场F座12楼1205室" }, "geometry": { "type": "Point", "coordinates": [ 118.732017015972232, 32.032574028592414 ] } },
{ "type": "Feature", "properties": { "OBJECTID": 147, "name": "金元宝大酒店 (南京金箔艺术馆店)", "lng": 118.865171, "lat": 31.95848, "address": "金箔路58号" }, "geometry": { "type": "Point", "coordinates": [ 118.853495908097443, 31.954982806924136 ] } },
{ "type": "Feature", "properties": { "OBJECTID": 148, "name": "南京H·hotel公寓", "lng": 118.901758, "lat": 31.920921, "address": "鹏山路祥云·悦广场1栋15楼" }, "geometry": { "type": "Point", "coordinates": [ 118.890277102021869, 31.917010332549001 ] } },
{ "type": "Feature", "properties": { "OBJECTID": 149, "name": "嘉美·影院酒店(南京南站天隆寺地铁站店)", "lng": 118.771512, "lat": 31.98621, "address": "江苏省南京市雨花台区软件大道109号雨花客厅7幢" }, "geometry": { "type": "Point", "coordinates": [ 118.759770317425875, 31.982323560100948 ] } }
]
}
